airportCode,airportName,cityName,countryName,countryCode,latitude,longitude,geometry
OAKB,Kabul Intl,Kabul,Afghanistan,AFG,34.56584722,69.21235556,"{""type"":""Point"",""coordinates"":[69.21235555555556,34.56584722222222]}"
OAKN,Kandahar,Kandahar,Afghanistan,AFG,31.50587222,65.84779722,"{""type"":""Point"",""coordinates"":[65.84779722222221,31.505872222222223]}"
LATI,Tirana,Tirana,Albania,ALB,41.41472222,19.72055556,"{""type"":""Point"",""coordinates"":[19.720555555555553,41.414722222222224]}"
DAUA,Touat Cheikh Sidi Mohamed Belkebir,Adrar,Algeria,DZA,27.83916667,-0.185277778,"{""type"":""Point"",""coordinates"":[-0.18527777777777776,27.839166666666664]}"
DAAG,Houari Boumediene,Algiers,Algeria,DZA,36.69383333,3.214555556,"{""type"":""Point"",""coordinates"":[3.2145555555555556,36.69383333333333]}"
DABB,Rabah Bitat,Annaba,Algeria,DZA,36.82222222,7.809444444,"{""type"":""Point"",""coordinates"":[7.809444444444444,36.82222222222222]}"
DABT,Mostepha Ben Boulaid,Batna,Algeria,DZA,35.75916667,6.3225,"{""type"":""Point"",""coordinates"":[6.3225,35.759166666666665]}"
DAAE,Soummam-Abane Ramdane,Bejaia,Algeria,DZA,36.71194444,5.069444444,"{""type"":""Point"",""coordinates"":[5.069444444444445,36.71194444444445]}"
DAUB,Mohamed Khider,Biskra,Algeria,DZA,34.80166667,5.741666667,"{""type"":""Point"",""coordinates"":[5.741666666666667,34.80166666666666]}"
DAOI,Chlef,Chlef,Algeria,DZA,36.21694444,1.34,"{""type"":""Point"",""coordinates"":[1.3399999999999999,36.216944444444444]}"
DABC,Mohamed Boudiaf,Constantine,Algeria,DZA,36.28527778,6.619166667,"{""type"":""Point"",""coordinates"":[6.6191666666666675,36.28527777777778]}"
DAAJ,Tiska,Djanet,Algeria,DZA,24.29305556,9.451944444,"{""type"":""Point"",""coordinates"":[9.451944444444443,24.293055555555558]}"
DAUH,Oued Irara-Krim Belkacem,Hassi Messaoud,Algeria,DZA,31.67388889,6.140555556,"{""type"":""Point"",""coordinates"":[6.140555555555556,31.67388888888889]}"
DAAV,Ferhat Abbas,Jijel,Algeria,DZA,36.79444444,5.873611111,"{""type"":""Point"",""coordinates"":[5.873611111111112,36.794444444444444]}"
DAOO,Ahmed Benbella,Oran,Algeria,DZA,35.62722222,-0.611388889,"{""type"":""Point"",""coordinates"":[-0.6113888888888889,35.62722222222222]}"
DAAS,8 Mai 45,Setif,Algeria,DZA,36.17861111,5.33,"{""type"":""Point"",""coordinates"":[5.33,36.17861111111111]}"
DAAT,Aguenar-Hadj Bey Akhamok,Tamanrasset,Algeria,DZA,22.81111111,5.450833333,"{""type"":""Point"",""coordinates"":[5.450833333333334,22.811111111111114]}"
DABS,Cheikh Larbi Tebessi,Tebessa,Algeria,DZA,35.43263611,8.1256,"{""type"":""Point"",""coordinates"":[8.1256,35.43263611111111]}"
DAOB,Abdelhafid Boussouf Bou Chekif,Tiaret,Algeria,DZA,35.34138889,1.466944444,"{""type"":""Point"",""coordinates"":[1.4669444444444446,35.34138888888889]}"
DAON,Zenata-Messali El Hadj,Tlemcen,Algeria,DZA,35.01527778,-1.450833333,"{""type"":""Point"",""coordinates"":[-1.4508333333333332,35.015277777777776]}"
DAUZ,In Amenas,Zarzaitine,Algeria,DZA,28.05138889,9.642777778,"{""type"":""Point"",""coordinates"":[9.642777777777777,28.05138888888889]}"
NSTU,Pago Pago Intl,Pago Pago,Amer Samoa,ASM,-14.33165833,-170.7115028,"{""type"":""Point"",""coordinates"":[-170.71150277777775,-14.331658333333333]}"
FNLU,4th Of February,Luanda,Angola,AGO,-8.855491667,13.23391111,"{""type"":""Point"",""coordinates"":[13.23391111111111,-8.855491666666666]}"
TQPF,Clayton J. Lloyd Intl,The Valley,Anguilla,AIA,18.2048,-63.05385556,"{""type"":""Point"",""coordinates"":[-63.05385555555555,18.2048]}"
TAPA,V C Bird Intl,St Johns,Antigua,ATG,17.13666667,-61.79277778,"{""type"":""Point"",""coordinates"":[-61.79277777777778,17.136666666666667]}"
SAEZ,Ezeiza Intl Ministro Pistarini,Buenos Aires,Argentina,ARG,-34.82222222,-58.53583333,"{""type"":""Point"",""coordinates"":[-58.53583333333333,-34.82222222222222]}"
SABE,Jorge Newbery Aeroparque,Buenos Aires,Argentina,ARG,-34.55888889,-58.41638889,"{""type"":""Point"",""coordinates"":[-58.41638888888889,-34.55888888888889]}"
SARI,Mayor D Carlos Eduardo Krause,Cataratas Del Iguazu,Argentina,ARG,-25.73722222,-54.47333333,"{""type"":""Point"",""coordinates"":[-54.473333333333336,-25.737222222222222]}"
SAVC,Gen Enrique Mosconi,Comodoro Rivadavia,Argentina,ARG,-45.78527778,-67.46555556,"{""type"":""Point"",""coordinates"":[-67.46555555555555,-45.78527777777778]}"
SACO,Ing Aer A L V Taravella,Cordoba,Argentina,ARG,-31.31,-64.20833333,"{""type"":""Point"",""coordinates"":[-64.20833333333334,-31.310000000000002]}"
SASJ,Gobernador Horacio Guzman,Jujuy,Argentina,ARG,-24.39277778,-65.09777778,"{""type"":""Point"",""coordinates"":[-65.09777777777778,-24.392777777777777]}"
SAZM,Astor Piazzolla,Mar Del Plata,Argentina,ARG,-37.93416667,-57.57333333,"{""type"":""Point"",""coordinates"":[-57.57333333333334,-37.93416666666666]}"
SAME,El Plumerillo,Mendoza,Argentina,ARG,-32.83166667,-68.79277778,"{""type"":""Point"",""coordinates"":[-68.79277777777777,-32.83166666666667]}"
SAZN,Presidente Peron,Neuquen,Argentina,ARG,-38.94888889,-68.15583333,"{""type"":""Point"",""coordinates"":[-68.15583333333333,-38.94888888888889]}"
SARE,Resistencia,Resistencia,Argentina,ARG,-27.45,-59.05611111,"{""type"":""Point"",""coordinates"":[-59.05611111111111,-27.45]}"
SAWG,Norberto Fernandez,Rio Gallegos,Argentina,ARG,-51.60888889,-69.31277778,"{""type"":""Point"",""coordinates"":[-69.31277777777777,-51.60888888888889]}"
SAAR,Islas Malvinas,Rosario,Argentina,ARG,-32.90361111,-60.78444444,"{""type"":""Point"",""coordinates"":[-60.78444444444444,-32.90361111111111]}"
SAZS,S C De Bariloche,S C De Bariloche,Argentina,ARG,-41.15111111,-71.15777778,"{""type"":""Point"",""coordinates"":[-71.15777777777778,-41.151111111111106]}"
SASA,Gen. Don Martin Miguel de Guemes,Salta,Argentina,ARG,-24.85972222,-65.48694444,"{""type"":""Point"",""coordinates"":[-65.48694444444445,-24.859722222222224]}"
SADF,San Fernando Intl,San Fernando,Argentina,ARG,-34.455,-58.59138889,"{""type"":""Point"",""coordinates"":[-58.59138888888889,-34.455000000000005]}"
SAWH,Malvinas Argentinas,Ushuaia,Argentina,ARG,-54.84333333,-68.29555556,"{""type"":""Point"",""coordinates"":[-68.29555555555555,-54.843333333333334]}"
UDSG,Shirak,Gyumri,Armenia,ARM,40.750475,43.859325,"{""type"":""Point"",""coordinates"":[43.859325,40.750475]}"
UDYZ,Zvartnots,Yerevan,Armenia,ARM,40.14722222,44.39583333,"{""type"":""Point"",""coordinates"":[44.395833333333336,40.14722222222222]}"
TNCA,Reina Beatrix Intl,Aruba Island,Aruba,XJS,12.50138056,-70.01523056,"{""type"":""Point"",""coordinates"":[-70.01523055555556,12.501380555555556]}"
YPAD,Adelaide Intl,Adelaide,Australia,AUS,-34.945,138.5305556,"{""type"":""Point"",""coordinates"":[138.53055555555557,-34.94499999999999]}"
YBAS,Alice Springs,Alice Springs,Australia,AUS,-23.80694444,133.9022222,"{""type"":""Point"",""coordinates"":[133.90222222222224,-23.806944444444444]}"
YBBN,Brisbane Intl,Brisbane,Australia,AUS,-27.38416667,153.1175,"{""type"":""Point"",""coordinates"":[153.1175,-27.384166666666665]}"
YBCS,Cairns Intl,Cairns,Australia,AUS,-16.88583333,145.7552778,"{""type"":""Point"",""coordinates"":[145.7552777777778,-16.885833333333334]}"
YPXM,Christmas I,Christmas I,Australia,AUS,-10.45055556,105.6902778,"{""type"":""Point"",""coordinates"":[105.69027777777778,-10.450555555555555]}"
YPCC,Cocos (Keeling) I Intl,Cocos (Keeling) I,Australia,AUS,-12.18833333,96.83,"{""type"":""Point"",""coordinates"":[96.83,-12.188333333333334]}"
YPDN,Darwin Intl,Darwin,Australia,AUS,-12.41472222,130.8766667,"{""type"":""Point"",""coordinates"":[130.87666666666667,-12.414722222222222]}"
YMHB,Hobart,Hobart,Australia,AUS,-42.83611111,147.5102778,"{""type"":""Point"",""coordinates"":[147.5102777777778,-42.836111111111116]}"
YMML,Melbourne Intl,Melbourne,Australia,AUS,-37.67333333,144.8433333,"{""type"":""Point"",""coordinates"":[144.84333333333333,-37.67333333333333]}"
YSNF,Norfolk Island,Norfolk I,Australia,AUS,-29.0425,167.9380556,"{""type"":""Point"",""coordinates"":[167.93805555555556,-29.0425]}"
YPPH,Perth Intl,Perth,Australia,AUS,-31.94027778,115.9669444,"{""type"":""Point"",""coordinates"":[115.96694444444445,-31.940277777777776]}"
YPPD,Port Hedland Intl,Port Hedland,Australia,AUS,-20.37777778,118.6263889,"{""type"":""Point"",""coordinates"":[118.62638888888888,-20.37777777777778]}"
YBRK,Rockhampton,Rockhampton,Australia,AUS,-23.38194444,150.4752778,"{""type"":""Point"",""coordinates"":[150.4752777777778,-23.381944444444446]}"
YSSY,Kingsford Smith Intl,Sydney,Australia,AUS,-33.94611111,151.1772222,"{""type"":""Point"",""coordinates"":[151.1772222222222,-33.94611111111111]}"
YPTN,Tindal (Military),Tindal,Australia,AUS,-14.52111111,132.3777778,"{""type"":""Point"",""coordinates"":[132.3777777777778,-14.521111111111113]}"
YBTL,Townsville Intl,Townsville,Australia,AUS,-19.2525,146.7652778,"{""type"":""Point"",""coordinates"":[146.76527777777778,-19.2525]}"
LOWG,Graz,Graz,Austria,AUT,46.99305556,15.43916667,"{""type"":""Point"",""coordinates"":[15.439166666666667,46.99305555555556]}"
LOIH,Dornbirn,Hohenems,Austria,AUT,47.38444444,9.699722222,"{""type"":""Point"",""coordinates"":[9.699722222222222,47.38444444444444]}"
LOWI,Innsbruck,Innsbruck,Austria,AUT,47.26027778,11.34388889,"{""type"":""Point"",""coordinates"":[11.34388888888889,47.26027777777778]}"
LOWK,Klagenfurt,Klagenfurt,Austria,AUT,46.64277778,14.33722222,"{""type"":""Point"",""coordinates"":[14.337222222222223,46.64277777777778]}"
LOWL,Linz,Linz,Austria,AUT,48.23527778,14.18805556,"{""type"":""Point"",""coordinates"":[14.188055555555556,48.23527777777778]}"
LOWS,Salzburg,Salzburg,Austria,AUT,47.79444444,13.00333333,"{""type"":""Point"",""coordinates"":[13.003333333333334,47.794444444444444]}"
LOIJ,St Johann,St Johann,Austria,AUT,47.52055556,12.44944444,"{""type"":""Point"",""coordinates"":[12.449444444444445,47.52055555555555]}"
LOWW,Schwechat,Vienna,Austria,AUT,48.11027778,16.56972222,"{""type"":""Point"",""coordinates"":[16.56972222222222,48.11027777777778]}"
LOAV,Voslau,Voslau,Austria,AUT,47.96444444,16.25944444,"{""type"":""Point"",""coordinates"":[16.259444444444444,47.964444444444446]}"
LOLW,Wels,Wels,Austria,AUT,48.18111111,14.0375,"{""type"":""Point"",""coordinates"":[14.0375,48.18111111111111]}"
LOWZ,Zell Am See,Zell Am See,Austria,AUT,47.29222222,12.7875,"{""type"":""Point"",""coordinates"":[12.7875,47.29222222222222]}"
UBBB,Heydar Aliyev Intl,Baku,Azerbaijan,AZE,40.46972222,50.05138889,"{""type"":""Point"",""coordinates"":[50.05138888888889,40.469722222222224]}"
UBBG,Ganja,Ganja,Azerbaijan,AZE,40.73888889,46.32,"{""type"":""Point"",""coordinates"":[46.32,40.73888888888889]}"
UBBN,Nakhchivan,Nakhchivan,Azerbaijan,AZE,39.18873333,45.45728056,"{""type"":""Point"",""coordinates"":[45.457280555555556,39.18873333333333]}"
LPPD,Joao Paulo II,Ponta Delgada,Azores,XJI,37.74194444,-25.69777778,"{""type"":""Point"",""coordinates"":[-25.697777777777777,37.74194444444444]}"
LPAZ,Santa Maria,Santa Maria,Azores,XJI,36.97388889,-25.17111111,"{""type"":""Point"",""coordinates"":[-25.171111111111113,36.973888888888894]}"
MYAT,Treasure Cay,Abaco I,Bahamas,BHS,26.74534167,-77.39127222,"{""type"":""Point"",""coordinates"":[-77.39127222222223,26.74534166666667]}"
MYAM,Marsh Harbour Intl,Abaco I,Bahamas,BHS,26.51012778,-77.08511944,"{""type"":""Point"",""coordinates"":[-77.08511944444444,26.51012777777778]}"
MYBS,South Bimini,Bimini I,Bahamas,BHS,25.69997778,-79.26513611,"{""type"":""Point"",""coordinates"":[-79.2651361111111,25.69997777777778]}"
MYEH,North Eleuthera,Eleuthera,Bahamas,BHS,25.47563333,-76.68136667,"{""type"":""Point"",""coordinates"":[-76.68136666666668,25.47563333333333]}"
MYEM,Governors Harbour,Eleuthera I,Bahamas,BHS,25.28358611,-76.33017778,"{""type"":""Point"",""coordinates"":[-76.33017777777778,25.283586111111113]}"
MYGF,Grand Bahama Intl,Freeport,Bahamas,BHS,26.55868611,-78.69555278,"{""type"":""Point"",""coordinates"":[-78.69555277777778,26.55868611111111]}"
MYLS,Stella Maris,Long I,Bahamas,BHS,23.58304722,-75.26877778,"{""type"":""Point"",""coordinates"":[-75.26877777777777,23.583047222222223]}"
MYNN,Lynden Pindling Intl,Nassau,Bahamas,BHS,25.03895833,-77.46623056,"{""type"":""Point"",""coordinates"":[-77.46623055555555,25.038958333333333]}"
MYSM,San Salvador Intl,San Salvador,Bahamas,BHS,24.06312778,-74.52365,"{""type"":""Point"",""coordinates"":[-74.52365,24.06312777777778]}"
OBBI,Bahrain Intl,Bahrain,Bahrain,BHR,26.27083333,50.63361111,"{""type"":""Point"",""coordinates"":[50.63361111111111,26.270833333333332]}"
VGEG,Shah Amanat Intl,Chittagong,Bangladesh,BGD,22.25702222,91.82220833,"{""type"":""Point"",""coordinates"":[91.82220833333334,22.257022222222222]}"
VGHS,Hazrat Shahjalal Intl,Dhaka,Bangladesh,BGD,23.84334722,90.39778333,"{""type"":""Point"",""coordinates"":[90.39778333333334,23.84334722222222]}"
TBPB,Grantley Adams Intl,Bridgetown,Barbados,BRB,13.07472222,-59.49222222,"{""type"":""Point"",""coordinates"":[-59.492222222222225,13.074722222222222]}"
UMBB,Brest,Brest,Belarus,BLR,52.10833333,23.89638889,"{""type"":""Point"",""coordinates"":[23.89638888888889,52.108333333333334]}"
UMGG,Homiel,Homiel,Belarus,BLR,52.52694444,31.01666667,"{""type"":""Point"",""coordinates"":[31.016666666666666,52.526944444444446]}"
UMMG,Hrodna,Hrodna,Belarus,BLR,53.60194444,24.05388889,"{""type"":""Point"",""coordinates"":[24.05388888888889,53.60194444444445]}"
UMOO,Mahiliou,Mahiliou,Belarus,BLR,53.95527778,30.09416667,"{""type"":""Point"",""coordinates"":[30.094166666666666,53.95527777777778]}"
UMMS,Minsk-2,Minsk,Belarus,BLR,53.8825,28.03083333,"{""type"":""Point"",""coordinates"":[28.030833333333334,53.8825]}"
UMII,Viciebsk,Viciebsk,Belarus,BLR,55.12638889,30.34972222,"{""type"":""Point"",""coordinates"":[30.349722222222223,55.12638888888889]}"
EBAW,Deurne,Antwerp,Belgium,BEL,51.18944444,4.460277778,"{""type"":""Point"",""coordinates"":[4.460277777777778,51.18944444444444]}"
EBBR,Brussels National,Brussels,Belgium,BEL,50.90138889,4.484444444,"{""type"":""Point"",""coordinates"":[4.484444444444445,50.90138888888889]}"
EBCI,Brussels South,Charleroi,Belgium,BEL,50.46,4.452777778,"{""type"":""Point"",""coordinates"":[4.452777777777778,50.46]}"
EBKT,Kortrijk-Wevelgem,Kortrijk-Wevelgem,Belgium,BEL,50.81861111,3.209166667,"{""type"":""Point"",""coordinates"":[3.209166666666667,50.81861111111112]}"
EBLG,Liege,Liege,Belgium,BEL,50.63638889,5.442777778,"{""type"":""Point"",""coordinates"":[5.442777777777778,50.63638888888889]}"
EBOS,Ostend,Ostend-Brugge,Belgium,BEL,51.19888889,2.862222222,"{""type"":""Point"",""coordinates"":[2.8622222222222224,51.19888888888889]}"
MZBZ,Philip S W Goldson Intl,Belize City,Belize,BLZ,17.53916667,-88.30833333,"{""type"":""Point"",""coordinates"":[-88.30833333333334,17.539166666666667]}"
DBBB,Cadjehoun Intl,Cotonou,Benin,BEN,6.356380556,2.38335,"{""type"":""Point"",""coordinates"":[2.38335,6.356380555555555]}"
TXKF,L F Wade Intl,Bermuda Is,Bermuda,BMU,32.36404167,-64.67870278,"{""type"":""Point"",""coordinates"":[-64.67870277777779,32.364041666666665]}"
VQPR,Paro,Paro,Bhutan,BTN,27.40346389,89.424875,"{""type"":""Point"",""coordinates"":[89.424875,27.403463888888886]}"
SLCB,Jorge Wilstermann Intl,Cochabamba,Bolivia,BOL,-17.41833333,-66.17722222,"{""type"":""Point"",""coordinates"":[-66.17722222222223,-17.418333333333333]}"
SLLP,El Alto Intl,La Paz,Bolivia,BOL,-16.5125,-68.19222222,"{""type"":""Point"",""coordinates"":[-68.19222222222223,-16.5125]}"
SLVR,Viru Viru Intl,Santa Cruz,Bolivia,BOL,-17.64611111,-63.13777778,"{""type"":""Point"",""coordinates"":[-63.13777777777778,-17.64611111111111]}"
SLTJ,Capt Oriel Lea Plaza Intl,Tarija,Bolivia,BOL,-21.55111111,-64.70833333,"{""type"":""Point"",""coordinates"":[-64.70833333333334,-21.551111111111112]}"
LQBK,Banja Luka,Banja Luka,Bosnia-Herzegovina,BIH,44.94139722,17.297475,"{""type"":""Point"",""coordinates"":[17.297475000000002,44.94139722222222]}"
LQMO,Mostar,Mostar,Bosnia-Herzegovina,BIH,43.28290278,17.84588056,"{""type"":""Point"",""coordinates"":[17.845880555555553,43.28290277777778]}"
LQSA,Sarajevo,Sarajevo,Bosnia-Herzegovina,BIH,43.82447222,18.33176667,"{""type"":""Point"",""coordinates"":[18.331766666666667,43.82447222222223]}"
LQTZ,Tuzla,Tuzla,Bosnia-Herzegovina,BIH,44.45865278,18.72478056,"{""type"":""Point"",""coordinates"":[18.724780555555554,44.45865277777778]}"
FBFT,Francistown,Francistown,Botswana,BWA,-21.1575,27.46944444,"{""type"":""Point"",""coordinates"":[27.46944444444444,-21.1575]}"
FBKE,Kasane,Kasane,Botswana,BWA,-17.83084722,25.1626,"{""type"":""Point"",""coordinates"":[25.162599999999998,-17.83084722222222]}"
FBMN,Maun,Maun,Botswana,BWA,-19.9725,23.42805556,"{""type"":""Point"",""coordinates"":[23.428055555555556,-19.972499999999997]}"
FBSP,Selebi-Phikwe,Selebi-Phikwe,Botswana,BWA,-22.0566,27.82045833,"{""type"":""Point"",""coordinates"":[27.820458333333335,-22.0566]}"
SBBE,Val De Cans/Julio Cezar Ribeiro Intl,Belem,Brazil,BRA,-1.384722222,-48.47888889,"{""type"":""Point"",""coordinates"":[-48.47888888888889,-1.3847222222222222]}"
SBCF,Tancredo Neves Intl,Belo Horizonte,Brazil,BRA,-19.62444444,-43.97194444,"{""type"":""Point"",""coordinates"":[-43.971944444444446,-19.624444444444446]}"
SBBV,Atlas Brazil Cantanhede Intl,Boa Vista,Brazil,BRA,2.841388889,-60.69222222,"{""type"":""Point"",""coordinates"":[-60.69222222222222,2.841388888888889]}"
SBBR,Pres Juscelino Kubitschek Intl,Brasilia,Brazil,BRA,-15.87111111,-47.91861111,"{""type"":""Point"",""coordinates"":[-47.91861111111111,-15.871111111111112]}"
SBKP,Viracopos Intl,Campinas,Brazil,BRA,-23.00694444,-47.13444444,"{""type"":""Point"",""coordinates"":[-47.13444444444444,-23.006944444444443]}"
SBCG,Campo Grande Intl,Campo Grande,Brazil,BRA,-20.46944444,-54.67027778,"{""type"":""Point"",""coordinates"":[-54.67027777777778,-20.46944444444444]}"
SBCR,Corumba Intl,Corumba,Brazil,BRA,-19.01194444,-57.67138889,"{""type"":""Point"",""coordinates"":[-57.671388888888885,-19.011944444444445]}"
SBCZ,Cruzeiro Do Sul-Intl,Cruzeiro Do Sul,Brazil,BRA,-7.599444444,-72.76944444,"{""type"":""Point"",""coordinates"":[-72.76944444444445,-7.599444444444444]}"
SBCY,Marechal Rondon Intl,Cuiaba,Brazil,BRA,-15.65,-56.1175,"{""type"":""Point"",""coordinates"":[-56.1175,-15.65]}"
SBCT,Afonso Pena Intl,Curitiba,Brazil,BRA,-25.53166667,-49.17611111,"{""type"":""Point"",""coordinates"":[-49.17611111111111,-25.531666666666666]}"
SBFL,Hercilio Luz Intl,Florianopolis,Brazil,BRA,-27.67027778,-48.5525,"{""type"":""Point"",""coordinates"":[-48.552499999999995,-27.67027777777778]}"
SBFZ,Pinto Martins Intl,Fortaleza,Brazil,BRA,-3.775833333,-38.53222222,"{""type"":""Point"",""coordinates"":[-38.532222222222224,-3.7758333333333334]}"
SBFI,Cataratas Intl,Foz Do Iguacu,Brazil,BRA,-25.60027778,-54.485,"{""type"":""Point"",""coordinates"":[-54.485,-25.60027777777778]}"
SBMQ,Alberto Alcolumbre,Macapa,Brazil,BRA,0.050833333,-51.07027778,"{""type"":""Point"",""coordinates"":[-51.07027777777778,0.050833333333333335]}"
SBMO,Zumbi Dos Palmares,Maceio,Brazil,BRA,-9.517222222,-35.78361111,"{""type"":""Point"",""coordinates"":[-35.78361111111111,-9.517222222222223]}"
SBEG,Eduardo Gomes Intl,Manaus,Brazil,BRA,-3.038888889,-60.04611111,"{""type"":""Point"",""coordinates"":[-60.04611111111111,-3.0388888888888888]}"
SBNT,Augusto Severo,Natal,Brazil,BRA,-5.908333333,-35.24916667,"{""type"":""Point"",""coordinates"":[-35.24916666666667,-5.908333333333334]}"
SBPP,Ponta Pora Intl,Ponta Pora,Brazil,BRA,-22.54972222,-55.70305556,"{""type"":""Point"",""coordinates"":[-55.70305555555556,-22.549722222222226]}"
SBPA,Salgado Filho Intl,Porto Alegre,Brazil,BRA,-29.99388889,-51.17111111,"{""type"":""Point"",""coordinates"":[-51.17111111111111,-29.99388888888889]}"
SBRF,"Guararapes - Gilberto Freyre,  Intl",Recife,Brazil,BRA,-8.126388889,-34.92277778,"{""type"":""Point"",""coordinates"":[-34.922777777777775,-8.12638888888889]}"
SBGL,Galeao-Antonio C Jobim Intl,Rio De Janeiro,Brazil,BRA,-22.81,-43.25055556,"{""type"":""Point"",""coordinates"":[-43.25055555555556,-22.810000000000002]}"
SBSV,Dep. L. E. Magalhaes Intl,Salvador,Brazil,BRA,-12.90861111,-38.3225,"{""type"":""Point"",""coordinates"":[-38.322500000000005,-12.908611111111112]}"
SBSN,Maestro Wilson Fonseca Intl,Santarem,Brazil,BRA,-2.424722222,-54.78583333,"{""type"":""Point"",""coordinates"":[-54.78583333333333,-2.424722222222222]}"
SBSL,Marechal Cunha Machado Intl,Sao Luis,Brazil,BRA,-2.586944444,-44.23611111,"{""type"":""Point"",""coordinates"":[-44.236111111111114,-2.5869444444444447]}"
SBGR,Guarulhos-Gov. Andre Franco Montoro Intl.,Sao Paulo,Brazil,BRA,-23.43555556,-46.47305556,"{""type"":""Point"",""coordinates"":[-46.473055555555554,-23.435555555555556]}"
SBTT,Tabatinga Intl,Tabatinga,Brazil,BRA,-4.250555556,-69.93777778,"{""type"":""Point"",""coordinates"":[-69.93777777777778,-4.250555555555556]}"
SBUG,Rubem Berta,Uruguaiana,Brazil,BRA,-29.78333333,-57.03694444,"{""type"":""Point"",""coordinates"":[-57.036944444444444,-29.783333333333335]}"
TUPJ,Terrance B Lettsome Intl,Roadtown,British Virgin Is,VGB,18.44555556,-64.54166667,"{""type"":""Point"",""coordinates"":[-64.54166666666667,18.445555555555554]}"
WBSB,Brunei Intl,Bandar Seri Begawan,Brunei,BRN,4.9442,114.9283528,"{""type"":""Point"",""coordinates"":[114.92835277777779,4.9442]}"
LBBG,Burgas,Burgas,Bulgaria,BGR,42.57027778,27.51527778,"{""type"":""Point"",""coordinates"":[27.51527777777778,42.57027777777778]}"
LBSF,Sofia,Sofia,Bulgaria,BGR,42.695,23.40833333,"{""type"":""Point"",""coordinates"":[23.40833333333333,42.69499999999999]}"
LBWN,Varna,Varna,Bulgaria,BGR,43.23194444,27.82527778,"{""type"":""Point"",""coordinates"":[27.825277777777778,43.231944444444444]}"
DFOO,Bobo-Dioulasso,Bobo-Dioulasso,Burkina Faso,BFA,11.16741667,-4.321055556,"{""type"":""Point"",""coordinates"":[-4.321055555555556,11.167416666666666]}"
DFFD,Ouagadougou,Ouagadougou,Burkina Faso,BFA,12.35366667,-1.512,"{""type"":""Point"",""coordinates"":[-1.512,12.353666666666665]}"
HBBA,Bujumbura Intl,Bujumbura,Burundi,BDI,-3.307752778,29.31596389,"{""type"":""Point"",""coordinates"":[29.315963888888888,-3.3077527777777775]}"
MBPV,Providenciales Intl,Providenciales I.,Caicos Is,XJL,21.77376389,-72.268675,"{""type"":""Point"",""coordinates"":[-72.268675,21.773763888888887]}"
MBSC,South Caicos Intl,South Caicos,Caicos Is,XJL,21.51577778,-71.52861667,"{""type"":""Point"",""coordinates"":[-71.52861666666666,21.515777777777778]}"
VDPP,Phnom Penh Intl,Phnom Penh,Cambodia,KHM,11.54666667,104.8441667,"{""type"":""Point"",""coordinates"":[104.84416666666667,11.546666666666667]}"
VDSR,Siem Reap Intl,Siem Reap,Cambodia,KHM,13.41090556,103.8123333,"{""type"":""Point"",""coordinates"":[103.81233333333333,13.410905555555557]}"
FKKD,Douala,Douala,Cameroon,CMR,4.011666667,9.708333333,"{""type"":""Point"",""coordinates"":[9.708333333333332,4.011666666666667]}"
FKKR,Garoua,Garoua,Cameroon,CMR,9.336666667,13.38111111,"{""type"":""Point"",""coordinates"":[13.381111111111112,9.336666666666668]}"
FKKL,Maroua-Salak,Maroua-Salak,Cameroon,CMR,10.45472222,14.25305556,"{""type"":""Point"",""coordinates"":[14.253055555555555,10.454722222222221]}"
FKYS,Nsimalen,Yaounde,Cameroon,CMR,3.717333333,11.55244444,"{""type"":""Point"",""coordinates"":[11.552444444444445,3.7173333333333334]}"
CYYC,Calgary Intl,Calgary,Canada,CAN,51.12261389,-114.0133472,"{""type"":""Point"",""coordinates"":[-114.01334722222222,51.12261388888889]}"
CYEG,Edmonton Intl,Edmonton,Canada,CAN,53.30988333,-113.5794944,"{""type"":""Point"",""coordinates"":[-113.57949444444444,53.30988333333333]}"
CYFC,Fredericton,Fredericton,Canada,CAN,45.86887778,-66.53721944,"{""type"":""Point"",""coordinates"":[-66.53721944444445,45.868877777777776]}"
CYQX,Gander Intl,Gander,Canada,CAN,48.93701944,-54.56813611,"{""type"":""Point"",""coordinates"":[-54.568136111111116,48.93701944444444]}"
CYHZ,Stanfield Intl,Halifax,Canada,CAN,44.87968056,-63.51019167,"{""type"":""Point"",""coordinates"":[-63.510191666666664,44.87968055555556]}"
CYQM,Greater Moncton Intl,Moncton,Canada,CAN,46.11609444,-64.67860556,"{""type"":""Point"",""coordinates"":[-64.67860555555556,46.11609444444444]}"
CYUL,Pierre Elliott Trudeau Intl,Montreal,Canada,CAN,45.47046389,-73.74093056,"{""type"":""Point"",""coordinates"":[-73.74093055555555,45.470463888888894]}"
CYOW,Macdonald-Cartier Intl,Ottawa,Canada,CAN,45.3225,-75.66726944,"{""type"":""Point"",""coordinates"":[-75.66726944444444,45.322500000000005]}"
CYQB,Jean Lesage Intl,Quebec,Canada,CAN,46.79119444,-71.39331111,"{""type"":""Point"",""coordinates"":[-71.39331111111112,46.79119444444444]}"
CYYT,St John's Intl,St John's,Canada,CAN,47.61861944,-52.75241944,"{""type"":""Point"",""coordinates"":[-52.75241944444444,47.61861944444445]}"
CYYZ,Lester B Pearson Intl,Toronto,Canada,CAN,43.67666111,-79.63064167,"{""type"":""Point"",""coordinates"":[-79.63064166666666,43.67666111111111]}"
CYVR,Vancouver Intl,Vancouver,Canada,CAN,49.19469444,-123.1839667,"{""type"":""Point"",""coordinates"":[-123.18396666666668,49.194694444444444]}"
CYWG,Richardson Intl,Winnipeg,Canada,CAN,49.91001111,-97.24009444,"{""type"":""Point"",""coordinates"":[-97.24009444444445,49.91001111111111]}"
GCFV,Fuerteventura,Fuerteventura,Canary Is,XJE,28.45277778,-13.86388889,"{""type"":""Point"",""coordinates"":[-13.863888888888889,28.452777777777776]}"
GCLP,Gran Canaria,Gran Canaria,Canary Is,XJE,27.93194444,-15.38666667,"{""type"":""Point"",""coordinates"":[-15.386666666666667,27.931944444444447]}"
GCHI,Hierro,Hierro,Canary Is,XJE,27.81472222,-17.88694444,"{""type"":""Point"",""coordinates"":[-17.886944444444445,27.814722222222223]}"
GCLA,La Palma,La Palma,Canary Is,XJE,28.62638889,-17.75555556,"{""type"":""Point"",""coordinates"":[-17.755555555555556,28.62638888888889]}"
GCRR,Lanzarote,Lanzarote,Canary Is,XJE,28.94555556,-13.60527778,"{""type"":""Point"",""coordinates"":[-13.605277777777777,28.945555555555554]}"
GCXO,Tenerife-North,Tenerife-North,Canary Is,XJE,28.48277778,-16.34166667,"{""type"":""Point"",""coordinates"":[-16.341666666666665,28.482777777777777]}"
GCTS,Reina Sofia,Tenerife-South,Canary Is,XJE,28.04444444,-16.5725,"{""type"":""Point"",""coordinates"":[-16.572499999999998,28.044444444444448]}"
GVAC,Amilcar Cabral,Sal,Cape Verde,CPV,16.73758889,-22.95001667,"{""type"":""Point"",""coordinates"":[-22.950016666666667,16.73758888888889]}"
MWCB,Charles Kirkconnell Intl,Cayman Brac,Cayman Is,CYM,19.68698333,-79.88280556,"{""type"":""Point"",""coordinates"":[-79.88280555555555,19.686983333333334]}"
MWCR,Roberts Intl,Grand Cayman,Cayman Is,CYM,19.29277778,-81.35776944,"{""type"":""Point"",""coordinates"":[-81.35776944444444,19.29277777777778]}"
FEFF,M'Poko,Bangui,Central African Republic,CAF,4.397777778,18.51972222,"{""type"":""Point"",""coordinates"":[18.51972222222222,4.397777777777778]}"
FEFT,Berberati,Berberati,Central African Republic,CAF,4.226,15.78541667,"{""type"":""Point"",""coordinates"":[15.785416666666666,4.226]}"
FTTJ,Hassan Djamous,N'Djamena,Chad,TCD,12.12494722,15.02481944,"{""type"":""Point"",""coordinates"":[15.024819444444445,12.124947222222223]}"
SCFA,Cerro Moreno Intl,Antofagasta,Chile,CHL,-23.44444444,-70.445,"{""type"":""Point"",""coordinates"":[-70.44500000000001,-23.444444444444446]}"
SCAR,Chacalluta Intl,Arica,Chile,CHL,-18.34861111,-70.33861111,"{""type"":""Point"",""coordinates"":[-70.3386111111111,-18.34861111111111]}"
SCIE,Carriel Sur Intl,Concepcion,Chile,CHL,-36.77138889,-73.0625,"{""type"":""Point"",""coordinates"":[-73.0625,-36.771388888888886]}"
SCDA,Diego Aracena Intl,Iquique,Chile,CHL,-20.53527778,-70.18138889,"{""type"":""Point"",""coordinates"":[-70.18138888888889,-20.53527777777778]}"
SCTE,El Tepual Intl,Puerto Montt,Chile,CHL,-41.43888889,-73.09388889,"{""type"":""Point"",""coordinates"":[-73.09388888888888,-41.43888888888888]}"
SCCI,Carlos Ibanez Del Campo Intl,Punta Arenas,Chile,CHL,-53.00361111,-70.85361111,"{""type"":""Point"",""coordinates"":[-70.8536111111111,-53.00361111111111]}"
SCEL,Arturo Merino Benitez Intl,Santiago,Chile,CHL,-33.39444167,-70.79380278,"{""type"":""Point"",""coordinates"":[-70.79380277777777,-33.394441666666665]}"
ZBAA,Beijing Capital,Beijing,China,CHN,40.07333333,116.5983333,"{""type"":""Point"",""coordinates"":[116.59833333333333,40.07333333333334]}"
ZGHA,Huanghua,Changsha,China,CHN,28.19,113.2183333,"{""type"":""Point"",""coordinates"":[113.21833333333333,28.19]}"
ZUUU,Shuangliu,Chengdu,China,CHN,30.58,103.9483333,"{""type"":""Point"",""coordinates"":[103.94833333333334,30.58]}"
ZUCK,Jiangbei,Chongqing,China,CHN,29.72,106.64,"{""type"":""Point"",""coordinates"":[106.64,29.72]}"
ZYTL,Zhoushuizi,Dalian,China,CHN,38.96666667,121.54,"{""type"":""Point"",""coordinates"":[121.53999999999999,38.96666666666667]}"
ZSFZ,Changle,Fuzhou,China,CHN,25.93333333,119.665,"{""type"":""Point"",""coordinates"":[119.665,25.933333333333334]}"
ZGGG,Baiyun,Guangzhou,China,CHN,23.39333333,113.3083333,"{""type"":""Point"",""coordinates"":[113.30833333333334,23.393333333333334]}"
ZGKL,Liangjiang,Guilin,China,CHN,25.21666667,110.0383333,"{""type"":""Point"",""coordinates"":[110.03833333333333,25.216666666666665]}"
ZSHC,Xiaoshan,Hangzhou,China,CHN,30.22833333,120.4333333,"{""type"":""Point"",""coordinates"":[120.43333333333334,30.22833333333333]}"
ZYHB,Taiping,Harbin,China,CHN,45.625,126.2516667,"{""type"":""Point"",""coordinates"":[126.25166666666667,45.625]}"
ZSOF,Xinqiao,Hefei,China,CHN,31.98666667,116.975,"{""type"":""Point"",""coordinates"":[116.97500000000001,31.986666666666668]}"
ZBHH,Baita,Hohhot,China,CHN,40.84833333,111.8233333,"{""type"":""Point"",""coordinates"":[111.82333333333332,40.848333333333336]}"
ZSJN,Yaoqiang,Jinan,China,CHN,36.85833333,117.215,"{""type"":""Point"",""coordinates"":[117.215,36.858333333333334]}"
ZWSH,Kashi,Kashi,China,CHN,39.545,76.02166667,"{""type"":""Point"",""coordinates"":[76.02166666666666,39.544999999999995]}"
ZPPP,Changshui,Kunming,China,CHN,25.105,102.9416667,"{""type"":""Point"",""coordinates"":[102.94166666666668,25.105]}"
ZLLL,Zhongchuan,Lanzhou,China,CHN,36.51666667,103.6216667,"{""type"":""Point"",""coordinates"":[103.62166666666666,36.516666666666666]}"
ZSNJ,Lukou,Nanjing,China,CHN,31.74333333,118.8633333,"{""type"":""Point"",""coordinates"":[118.86333333333333,31.743333333333336]}"
ZGNN,Wuxu,Nanning,China,CHN,22.61,108.1733333,"{""type"":""Point"",""coordinates"":[108.17333333333333,22.610000000000003]}"
ZSQD,Liuting,Qingdao,China,CHN,36.265,120.3733333,"{""type"":""Point"",""coordinates"":[120.37333333333332,36.265]}"
ZJSY,Phoenix Intl,Sanya,China,CHN,18.30166667,109.4133333,"{""type"":""Point"",""coordinates"":[109.41333333333334,18.301666666666666]}"
ZSSS,Hongqiao,Shanghai,China,CHN,31.19666667,121.335,"{""type"":""Point"",""coordinates"":[121.335,31.196666666666665]}"
ZSPD,Pudong,Shanghai,China,CHN,31.145,121.7933333,"{""type"":""Point"",""coordinates"":[121.79333333333334,31.145]}"
ZYTX,Taoxian,Shenyang,China,CHN,41.64166667,123.485,"{""type"":""Point"",""coordinates"":[123.485,41.641666666666666]}"
ZGSZ,Baoan,Shenzhen,China,CHN,22.63833333,113.8116667,"{""type"":""Point"",""coordinates"":[113.81166666666667,22.638333333333332]}"
ZBYN,Wusu,Taiyuan,China,CHN,37.74833333,112.63,"{""type"":""Point"",""coordinates"":[112.63,37.748333333333335]}"
ZBTJ,Binhai,Tianjin,China,CHN,39.12333333,117.345,"{""type"":""Point"",""coordinates"":[117.345,39.123333333333335]}"
ZWWW,Diwopu,Urumqi,China,CHN,43.90833333,87.475,"{""type"":""Point"",""coordinates"":[87.47500000000001,43.90833333333333]}"
ZHHH,Tianhe,Wuhan,China,CHN,30.785,114.2066667,"{""type"":""Point"",""coordinates"":[114.20666666666666,30.785]}"
ZSAM,Gaoqi,Xiamen,China,CHN,24.545,118.1266667,"{""type"":""Point"",""coordinates"":[118.12666666666667,24.545]}"
ZLXY,Xianyang,Xi'An,China,CHN,34.445,108.75,"{""type"":""Point"",""coordinates"":[108.75,34.44499999999999]}"
ZUXC,Qingshan,Xichang,China,CHN,27.99,102.1833333,"{""type"":""Point"",""coordinates"":[102.18333333333334,27.990000000000002]}"
SKBQ,Ernesto Cortissoz,Barranquilla,Colombia,COL,10.88856944,-74.78176667,"{""type"":""Point"",""coordinates"":[-74.78176666666667,10.888569444444444]}"
SKBO,Eldorado Intl,Bogota,Colombia,COL,4.701602778,-74.14695556,"{""type"":""Point"",""coordinates"":[-74.14695555555556,4.701602777777778]}"
SKBG,Palonegro,Bucaramanga,Colombia,COL,7.126619444,-73.18476111,"{""type"":""Point"",""coordinates"":[-73.18476111111111,7.126619444444444]}"
SKCL,Alfonso Bonilla Aragon Intl,Cali,Colombia,COL,3.543083333,-76.38169444,"{""type"":""Point"",""coordinates"":[-76.38169444444443,3.543083333333333]}"
SKCG,Rafael Nunez,Cartagena,Colombia,COL,10.44204167,-75.51277778,"{""type"":""Point"",""coordinates"":[-75.51277777777777,10.442041666666666]}"
SKCC,Camilo Daza Intl,Cucuta,Colombia,COL,7.927388889,-72.51161111,"{""type"":""Point"",""coordinates"":[-72.51161111111111,7.927388888888889]}"
SKLT,Alfredo Vasquez Cobo,Leticia,Colombia,COL,-4.191908333,-69.94220278,"{""type"":""Point"",""coordinates"":[-69.94220277777778,-4.191908333333334]}"
SKPI,Contador,Pitalito,Colombia,COL,1.8573,-76.08563056,"{""type"":""Point"",""coordinates"":[-76.08563055555555,1.8573000000000002]}"
SKRG,Jose Maria Cordova,Rionegro,Colombia,COL,6.164461111,-75.423,"{""type"":""Point"",""coordinates"":[-75.423,6.164461111111112]}"
SKSP,Gustavo Rojas Pinilla,San Andres,Colombia,COL,12.58366111,-81.71133889,"{""type"":""Point"",""coordinates"":[-81.71133888888889,12.583661111111113]}"
SKSM,Simon Bolivar Intl,Santa Marta,Colombia,COL,11.11968889,-74.23063889,"{""type"":""Point"",""coordinates"":[-74.23063888888889,11.11968888888889]}"
FMCV,Ouani,Anjouan,Comoros,COM,-12.13083333,44.42972222,"{""type"":""Point"",""coordinates"":[44.42972222222222,-12.130833333333333]}"
FMCH,Prince Said Ibrahim,Moroni,Comoros,COM,-11.53651944,43.271325,"{""type"":""Point"",""coordinates"":[43.271325,-11.536519444444444]}"
FZNA,Goma Intl,Goma,"Congo, Dr Of",COD,-1.670852778,29.23840278,"{""type"":""Point"",""coordinates"":[29.23840277777778,-1.6708527777777775]}"
FZAA,N'Djili Intl,Kinshasa,"Congo, Dr Of",COD,-4.385586111,15.44469722,"{""type"":""Point"",""coordinates"":[15.444697222222223,-4.385586111111111]}"
FZIC,Bangoka Intl,Kisangani,"Congo, Dr Of",COD,0.481677778,25.33796389,"{""type"":""Point"",""coordinates"":[25.337963888888886,0.48167777777777776]}"
FZQA,Lubumbashi Intl,Lubumbashi,"Congo, Dr Of",COD,-11.59128333,27.53089722,"{""type"":""Point"",""coordinates"":[27.530897222222222,-11.591283333333333]}"
FZWA,Mbuji-Mayi,Mbuji-Mayi,"Congo, Dr Of",COD,-6.116666667,23.56666667,"{""type"":""Point"",""coordinates"":[23.566666666666666,-6.116666666666666]}"
FCBB,Maya-Maya,Brazzaville,"Congo, Rep Of",COG,-4.2505,15.2515,"{""type"":""Point"",""coordinates"":[15.2515,-4.2505]}"
FCPP,Antonio Agostinho Neto,Pointe Noire,"Congo, Rep Of",COG,-4.814805556,11.88627778,"{""type"":""Point"",""coordinates"":[11.886277777777778,-4.814805555555555]}"
NCRG,Rarotonga Intl,Rarotonga I,Cook Is,COK,-21.200875,-159.79495,"{""type"":""Point"",""coordinates"":[-159.79495,-21.200875]}"
MRLB,Daniel Oduber Quiros Intl,Liberia,Costa Rica,CRI,10.59301389,-85.54554444,"{""type"":""Point"",""coordinates"":[-85.54554444444445,10.593013888888889]}"
MRLM,Limon Intl,Puerto Limon,Costa Rica,CRI,9.957897222,-83.02202778,"{""type"":""Point"",""coordinates"":[-83.02202777777778,9.957897222222222]}"
MROC,Juan Santamaria Intl,San Jose,Costa Rica,CRI,9.993902778,-84.20885556,"{""type"":""Point"",""coordinates"":[-84.20885555555556,9.993902777777777]}"
MRPV,Tobias Bolanos Intl,San Jose,Costa Rica,CRI,9.957138889,-84.13955833,"{""type"":""Point"",""coordinates"":[-84.13955833333334,9.957138888888888]}"
LDSB,Brac Island,Brac,Croatia,HRV,43.28571944,16.67971944,"{""type"":""Point"",""coordinates"":[16.679719444444444,43.285719444444446]}"
LDDU,Cilipi,Dubrovnik,Croatia,HRV,42.56135278,18.26824444,"{""type"":""Point"",""coordinates"":[18.268244444444445,42.56135277777778]}"
LDLO,Losinj,Losinj Island,Croatia,HRV,44.56590556,14.39318889,"{""type"":""Point"",""coordinates"":[14.393188888888888,44.56590555555555]}"
LDOS,Klisa,Osijek,Croatia,HRV,45.46266667,18.81015556,"{""type"":""Point"",""coordinates"":[18.810155555555557,45.46266666666667]}"
LDPL,Pula,Pula,Croatia,HRV,44.89353333,13.92219167,"{""type"":""Point"",""coordinates"":[13.922191666666667,44.89353333333333]}"
LDRI,Krk Island,Rijeka,Croatia,HRV,45.21688889,14.57026667,"{""type"":""Point"",""coordinates"":[14.570266666666667,45.21688888888889]}"
LDSP,Kastela,Split,Croatia,HRV,43.53894444,16.29796389,"{""type"":""Point"",""coordinates"":[16.29796388888889,43.53894444444444]}"
LDPV,Crljenka,Vrsar,Croatia,HRV,45.1417,13.63048056,"{""type"":""Point"",""coordinates"":[13.630480555555556,45.1417]}"
LDZD,Zemunik,Zadar,Croatia,HRV,44.10826944,15.34669722,"{""type"":""Point"",""coordinates"":[15.346697222222224,44.108269444444446]}"
LDZA,Pleso,Zagreb,Croatia,HRV,45.74293056,16.06877778,"{""type"":""Point"",""coordinates"":[16.06877777777778,45.74293055555555]}"
MUCM,Ignacio Agramonte Intl,Camaguey,Cuba,CUB,21.42027778,-77.8475,"{""type"":""Point"",""coordinates"":[-77.8475,21.42027777777778]}"
MUCC,Jardines del Rey Intl,Cayo Coco,Cuba,CUB,22.46111111,-78.32861111,"{""type"":""Point"",""coordinates"":[-78.3286111111111,22.461111111111112]}"
MUCL,Vilo Acuna Intl,Cayo Largo Del Sur,Cuba,CUB,21.61611111,-81.54555556,"{""type"":""Point"",""coordinates"":[-81.54555555555555,21.616111111111113]}"
MUHA,Jose Marti Intl,Havana,Cuba,CUB,22.98916667,-82.40916667,"{""type"":""Point"",""coordinates"":[-82.40916666666668,22.989166666666666]}"
MUHG,Frank Pais Intl,Holguin,Cuba,CUB,20.78555556,-76.315,"{""type"":""Point"",""coordinates"":[-76.315,20.785555555555558]}"
MUCU,Antonio Maceo Intl,Santiago De Cuba,Cuba,CUB,19.97,-75.83555556,"{""type"":""Point"",""coordinates"":[-75.83555555555554,19.97]}"
MUVR,Juan G. Gomez Intl,Varadero,Cuba,CUB,23.03444444,-81.43527778,"{""type"":""Point"",""coordinates"":[-81.43527777777778,23.034444444444446]}"
LCLK,Larnaca Intl,Larnaca,Cyprus,CYP,34.87888889,33.63027778,"{""type"":""Point"",""coordinates"":[33.63027777777778,34.87888888888889]}"
LCPH,Pafos Intl,Pafos,Cyprus,CYP,34.71833333,32.485,"{""type"":""Point"",""coordinates"":[32.485,34.718333333333334]}"
LKTB,Turany,Brno,Czech,CZE,49.15138889,16.69388889,"{""type"":""Point"",""coordinates"":[16.69388888888889,49.15138888888889]}"
LKKV,Karlovy Vary,Karlovy Vary,Czech,CZE,50.20305556,12.915,"{""type"":""Point"",""coordinates"":[12.915000000000001,50.20305555555556]}"
LKMT,Mosnov,Ostrava,Czech,CZE,49.69611111,18.11083333,"{""type"":""Point"",""coordinates"":[18.110833333333336,49.69611111111111]}"
LKPD,Pardubice,Pardubice,Czech,CZE,50.01345833,15.73857222,"{""type"":""Point"",""coordinates"":[15.73857222222222,50.01345833333333]}"
LKPR,Ruzyne,Prague,Czech,CZE,50.10083333,14.26,"{""type"":""Point"",""coordinates"":[14.26,50.100833333333334]}"
EKYT,Aalborg,Aalborg,Denmark,DNK,57.09278889,9.849163889,"{""type"":""Point"",""coordinates"":[9.849163888888889,57.09278888888889]}"
EKAH,Aarhus,Aarhus,Denmark,DNK,56.30001667,10.61900833,"{""type"":""Point"",""coordinates"":[10.619008333333333,56.300016666666664]}"
EKBI,Billund,Billund,Denmark,DNK,55.74032222,9.151777778,"{""type"":""Point"",""coordinates"":[9.151777777777777,55.740322222222225]}"
EKRN,Ronne,Bornholm,Denmark,DNK,55.06326667,14.75955833,"{""type"":""Point"",""coordinates"":[14.759558333333333,55.063266666666664]}"
EKRK,Roskilde,Copenhagen,Denmark,DNK,55.58556667,12.13142778,"{""type"":""Point"",""coordinates"":[12.131427777777779,55.58556666666667]}"
EKCH,Kastrup,Copenhagen,Denmark,DNK,55.61791667,12.65597222,"{""type"":""Point"",""coordinates"":[12.655972222222223,55.617916666666666]}"
EKEB,Esbjerg,Esbjerg,Denmark,DNK,55.52594167,8.553402778,"{""type"":""Point"",""coordinates"":[8.553402777777778,55.52594166666667]}"
EKVD,Vamdrup,Kolding,Denmark,DNK,55.43628333,9.330925,"{""type"":""Point"",""coordinates"":[9.330925,55.43628333333333]}"
EKMB,Maribo,Lolland Falster,Denmark,DNK,54.69934444,11.44011667,"{""type"":""Point"",""coordinates"":[11.440116666666666,54.69934444444444]}"
EKOD,Hans Christian Andersen,Odense,Denmark,DNK,55.47666389,10.33093333,"{""type"":""Point"",""coordinates"":[10.330933333333332,55.47666388888889]}"
EKSN,Sindal,Sindal,Denmark,DNK,57.503525,10.22937222,"{""type"":""Point"",""coordinates"":[10.229372222222223,57.503525]}"
EKSB,Sonderborg,Sonderborg,Denmark,DNK,54.96436667,9.791730556,"{""type"":""Point"",""coordinates"":[9.791730555555555,54.96436666666667]}"
EKVJ,Stauning,Stauning,Denmark,DNK,55.99012222,8.353905556,"{""type"":""Point"",""coordinates"":[8.353905555555555,55.990122222222226]}"
EKTS,Thisted,Thisted,Denmark,DNK,57.0688,8.705225,"{""type"":""Point"",""coordinates"":[8.705224999999999,57.0688]}"
HDAM,Ambouli,Djibouti,Djibouti,DJI,11.54722222,43.15944444,"{""type"":""Point"",""coordinates"":[43.159444444444446,11.547222222222222]}"
MDBH,Maria Montez Intl,Barahona,Dom Rep,DOM,18.25178889,-71.12019167,"{""type"":""Point"",""coordinates"":[-71.12019166666666,18.25178888888889]}"
MDPC,Punta Cana Intl,Higuey,Dom Rep,DOM,18.57078056,-68.36618611,"{""type"":""Point"",""coordinates"":[-68.3661861111111,18.570780555555555]}"
MDLR,Casa De Campo Intl,La Romana,Dom Rep,DOM,18.4525,-68.91138889,"{""type"":""Point"",""coordinates"":[-68.9113888888889,18.4525]}"
MDPP,Gregorio Luperon Intl,Puerto Plata,Dom Rep,DOM,19.7579,-70.57003333,"{""type"":""Point"",""coordinates"":[-70.57003333333333,19.7579]}"
MDCY,El Catey Intl,Samana,Dom Rep,DOM,19.26954722,-69.73697778,"{""type"":""Point"",""coordinates"":[-69.73697777777778,19.269547222222222]}"
MDST,Cibao Intl,Santiago,Dom Rep,DOM,19.40609167,-70.60468889,"{""type"":""Point"",""coordinates"":[-70.60468888888889,19.406091666666665]}"
MDSD,Las Americas Intl,Santo Domingo,Dom Rep,DOM,18.42966389,-69.668925,"{""type"":""Point"",""coordinates"":[-69.668925,18.42966388888889]}"
MDJB,El Higuero Intl,Santo Domingo/El Higuero,Dom Rep,DOM,18.572275,-69.98566944,"{""type"":""Point"",""coordinates"":[-69.98566944444444,18.572275]}"
TDPD,Douglas Charles Intl,Roseau,Dominica,DMA,15.54666667,-61.30138889,"{""type"":""Point"",""coordinates"":[-61.30138888888889,15.546666666666667]}"
ZKPY,Sunan,Pyongyang,DPR of Korea,PRK,39.20560833,125.6702417,"{""type"":""Point"",""coordinates"":[125.67024166666667,39.20560833333334]}"
SCIP,Mataveri Intl,Isla De Pascua,Easter Island,XJP,-27.16472222,-109.4216667,"{""type"":""Point"",""coordinates"":[-109.42166666666667,-27.16472222222222]}"
SEGU,Jose Joaquin de Olmedo Intl,Guayaquil,Ecuador,ECU,-2.157777778,-79.88388889,"{""type"":""Point"",""coordinates"":[-79.88388888888889,-2.1577777777777776]}"
SELT,Cotopaxi Intl Alternative,Latacunga,Ecuador,ECU,-0.906666667,-78.61583333,"{""type"":""Point"",""coordinates"":[-78.61583333333333,-0.9066666666666667]}"
SEMT,Eloy Alfaro Intl,Manta,Ecuador,ECU,-0.946111111,-80.67888889,"{""type"":""Point"",""coordinates"":[-80.67888888888889,-0.9461111111111111]}"
SEQM,Mariscal Sucre Intl,Quito,Ecuador,ECU,-0.124166667,-78.35444444,"{""type"":""Point"",""coordinates"":[-78.35444444444444,-0.12416666666666668]}"
HEAL,Al Alamain Intl,Al Alamain,Egypt,EGY,30.92444444,28.46138889,"{""type"":""Point"",""coordinates"":[28.461388888888887,30.924444444444447]}"
HEBA,Borg El Arab Intl,Alexandria,Egypt,EGY,30.91805556,29.69583333,"{""type"":""Point"",""coordinates"":[29.695833333333333,30.918055555555558]}"
HEAX,Alexandria Intl,Alexandria,Egypt,EGY,31.18166667,29.94638889,"{""type"":""Point"",""coordinates"":[29.94638888888889,31.18166666666667]}"
HESN,Aswan Intl,Aswan,Egypt,EGY,23.96444444,32.82,"{""type"":""Point"",""coordinates"":[32.82,23.964444444444442]}"
HEAT,Asyut Intl,Asyut,Egypt,EGY,27.04638889,31.01194444,"{""type"":""Point"",""coordinates"":[31.011944444444445,27.04638888888889]}"
HECA,Cairo Intl,Cairo,Egypt,EGY,30.11138889,31.41388889,"{""type"":""Point"",""coordinates"":[31.413888888888888,30.11138888888889]}"
HEAR,El Arish Intl,El Arish,Egypt,EGY,31.07333333,33.83583333,"{""type"":""Point"",""coordinates"":[33.83583333333333,31.073333333333334]}"
HEGN,Hurghada Intl,Hurghada,Egypt,EGY,27.17861111,33.80083333,"{""type"":""Point"",""coordinates"":[33.80083333333333,27.178611111111113]}"
HELX,Luxor Intl,Luxor,Egypt,EGY,25.67083333,32.70638889,"{""type"":""Point"",""coordinates"":[32.70638888888889,25.670833333333334]}"
HEMA,Marsa Alam Intl,Marsa Alam,Egypt,EGY,25.55805556,34.58305556,"{""type"":""Point"",""coordinates"":[34.58305555555556,25.558055555555555]}"
HEPS,Port Said,Port Said,Egypt,EGY,31.27944444,32.24,"{""type"":""Point"",""coordinates"":[32.24,31.279444444444444]}"
HEOW,Shark El Oweinat,Shark El Oweinat,Egypt,EGY,22.58333333,28.71611111,"{""type"":""Point"",""coordinates"":[28.71611111111111,22.583333333333332]}"
HESH,Sharm El Sheikh Intl,Sharm El Sheikh,Egypt,EGY,27.97861111,34.39333333,"{""type"":""Point"",""coordinates"":[34.39333333333333,27.97861111111111]}"
HESC,St Catherine,St Catherine,Egypt,EGY,28.68527778,34.0625,"{""type"":""Point"",""coordinates"":[34.0625,28.685277777777777]}"
HESG,Suhag Intl,Suhag,Egypt,EGY,26.34277778,31.74277778,"{""type"":""Point"",""coordinates"":[31.74277777777778,26.342777777777776]}"
HETB,Taba Intl,Taba,Egypt,EGY,29.58777778,34.77805556,"{""type"":""Point"",""coordinates"":[34.778055555555554,29.587777777777777]}"
MSSS,Ilopango Intl,San Salvador,El Salvador,SLV,13.69166667,-89.12555556,"{""type"":""Point"",""coordinates"":[-89.12555555555555,13.691666666666666]}"
MSLP,"El Salvador Intl, Oscar Arnulfo Romero y Galdamez",San Salvador,El Salvador,SLV,13.44093611,-89.05575,"{""type"":""Point"",""coordinates"":[-89.05575,13.440936111111112]}"
FGSL,Malabo,Malabo,Eq Guinea,GNQ,3.755277778,8.708611111,"{""type"":""Point"",""coordinates"":[8.70861111111111,3.7552777777777777]}"
HHAS,Asmara Intl,Asmara,Eritrea,ERI,15.28416667,38.90083333,"{""type"":""Point"",""coordinates"":[38.90083333333333,15.284166666666666]}"
HHSB,Assab Intl,Assab,Eritrea,ERI,13.06666667,42.63333333,"{""type"":""Point"",""coordinates"":[42.63333333333333,13.066666666666666]}"
EEKA,Kardla,Kardla,Estonia,EST,58.99083333,22.83083333,"{""type"":""Point"",""coordinates"":[22.830833333333334,58.990833333333335]}"
EEKE,Kuressaare,Kuressaare,Estonia,EST,58.23,22.50944444,"{""type"":""Point"",""coordinates"":[22.509444444444444,58.230000000000004]}"
EEPU,Parnu,Parnu,Estonia,EST,58.41888889,24.47277778,"{""type"":""Point"",""coordinates"":[24.472777777777775,58.41888888888889]}"
EETN,Lennart Meri,Tallinn,Estonia,EST,59.41333333,24.8325,"{""type"":""Point"",""coordinates"":[24.8325,59.413333333333334]}"
EETU,Tartu,Tartu,Estonia,EST,58.3075,26.68694444,"{""type"":""Point"",""coordinates"":[26.686944444444446,58.3075]}"
HAAB,Bole Intl,Addis Abeba,Ethiopia,ETH,8.975038889,38.79939722,"{""type"":""Point"",""coordinates"":[38.79939722222222,8.97503888888889]}"
HADR,Dire Dawa Intl,Dire Dawa,Ethiopia,ETH,9.637786111,41.84888611,"{""type"":""Point"",""coordinates"":[41.84888611111111,9.63778611111111]}"
EKVG,Vagar,Vagar,Faroe Is,FRO,62.06362778,-7.277219444,"{""type"":""Point"",""coordinates"":[-7.2772194444444445,62.063627777777775]}"
NFFN,Nadi Intl,Nadi,Fiji Is,FJI,-17.75638889,177.4436111,"{""type"":""Point"",""coordinates"":[177.44361111111112,-17.75638888888889]}"
EFHK,Vantaa,Helsinki,Finland,FIN,60.31722222,24.96333333,"{""type"":""Point"",""coordinates"":[24.96333333333333,60.31722222222223]}"
EFHF,Malmi,Helsinki,Finland,FIN,60.25388889,25.04416667,"{""type"":""Point"",""coordinates"":[25.04416666666667,60.25388888888889]}"
EFIV,Ivalo,Ivalo,Finland,FIN,68.61083333,27.41388889,"{""type"":""Point"",""coordinates"":[27.413888888888888,68.61083333333333]}"
EFMA,Mariehamn,Mariehamn,Finland,FIN,60.12194444,19.89638889,"{""type"":""Point"",""coordinates"":[19.89638888888889,60.121944444444445]}"
EFOU,Oulu,Oulu,Finland,FIN,64.92916667,25.35555556,"{""type"":""Point"",""coordinates"":[25.355555555555558,64.92916666666667]}"
EFRO,Rovaniemi,Rovaniemi,Finland,FIN,66.56166667,25.83083333,"{""type"":""Point"",""coordinates"":[25.830833333333334,66.56166666666667]}"
EFTP,Pirkkala,Tampere,Finland,FIN,61.41527778,23.58777778,"{""type"":""Point"",""coordinates"":[23.587777777777777,61.415277777777774]}"
EFTU,Turku,Turku,Finland,FIN,60.51472222,22.26166667,"{""type"":""Point"",""coordinates"":[22.261666666666667,60.514722222222225]}"
EFVA,Vaasa,Vaasa,Finland,FIN,63.04527778,21.76416667,"{""type"":""Point"",""coordinates"":[21.764166666666668,63.04527777777778]}"
LFKJ,Napoleon Bonaparte,Ajaccio,France,FRA,41.92388889,8.8025,"{""type"":""Point"",""coordinates"":[8.8025,41.92388888888889]}"
LFSB,Basle-Mulhouse,Basle-Mulhouse,France,FRA,47.59,7.529166667,"{""type"":""Point"",""coordinates"":[7.529166666666667,47.59]}"
LFKB,Poretta,Bastia,France,FRA,42.55,9.484722222,"{""type"":""Point"",""coordinates"":[9.48472222222222,42.55]}"
LFOB,Tille,Beauvais,France,FRA,49.45444444,2.112777778,"{""type"":""Point"",""coordinates"":[2.112777777777778,49.45444444444445]}"
LFBZ,Bayonne-Anglet,Biarritz,France,FRA,43.46833333,-1.531111111,"{""type"":""Point"",""coordinates"":[-1.531111111111111,43.468333333333334]}"
LFBD,Merignac,Bordeaux,France,FRA,44.82861111,-0.715277778,"{""type"":""Point"",""coordinates"":[-0.7152777777777777,44.828611111111115]}"
LFRB,Bretagne,Brest,France,FRA,48.44722222,-4.421666667,"{""type"":""Point"",""coordinates"":[-4.421666666666667,48.447222222222216]}"
LFRK,Carpiquet,Caen,France,FRA,49.17333333,-0.45,"{""type"":""Point"",""coordinates"":[-0.45,49.17333333333333]}"
LFAC,Calais-Dunkerque,Calais-Dunkerque,France,FRA,50.96083333,1.951388889,"{""type"":""Point"",""coordinates"":[1.9513888888888888,50.96083333333333]}"
LFKC,St Catherine,Calvi,France,FRA,42.52444444,8.793055556,"{""type"":""Point"",""coordinates"":[8.793055555555556,42.52444444444444]}"
LFMD,Mandelieu,Cannes,France,FRA,43.54638889,6.954166667,"{""type"":""Point"",""coordinates"":[6.954166666666667,43.546388888888885]}"
LFLB,Aix-Les-Bains,Chambery,France,FRA,45.63916667,5.88,"{""type"":""Point"",""coordinates"":[5.880000000000001,45.63916666666667]}"
LFRC,Maupertus,Cherbourg,France,FRA,49.65083333,-1.475277778,"{""type"":""Point"",""coordinates"":[-1.475277777777778,49.65083333333333]}"
LFLC,Clermont-Ferrand/Auvergne,Clermont-Ferrand/Auvergne,France,FRA,45.78611111,3.1625,"{""type"":""Point"",""coordinates"":[3.1625,45.78611111111111]}"
LFRG,Normandie,Deauville,France,FRA,49.36333333,0.16,"{""type"":""Point"",""coordinates"":[0.16,49.36333333333334]}"
LFRD,Pleurtuit-St Malo,Dinard,France,FRA,48.58777778,-2.08,"{""type"":""Point"",""coordinates"":[-2.08,48.58777777777778]}"
LFGJ,Tavaux,Dole,France,FRA,47.04277778,5.435,"{""type"":""Point"",""coordinates"":[5.4350000000000005,47.04277777777778]}"
LFLS,Isere,Grenoble,France,FRA,45.36305556,5.332777778,"{""type"":""Point"",""coordinates"":[5.332777777777777,45.363055555555555]}"
LFBH,Ile De Re,La Rochelle,France,FRA,46.17916667,-1.195277778,"{""type"":""Point"",""coordinates"":[-1.1952777777777779,46.17916666666667]}"
LFRO,Lannion,Lannion,France,FRA,48.75444444,-3.471944444,"{""type"":""Point"",""coordinates"":[-3.4719444444444445,48.754444444444445]}"
LFOH,Octeville,Le Havre,France,FRA,49.53388889,0.088055556,"{""type"":""Point"",""coordinates"":[0.08805555555555555,49.53388888888889]}"
LFAT,Cote D'Opale,Le Touquet,France,FRA,50.51472222,1.6275,"{""type"":""Point"",""coordinates"":[1.6275,50.514722222222225]}"
LFQQ,Lesquin,Lille,France,FRA,50.56333333,3.086944444,"{""type"":""Point"",""coordinates"":[3.0869444444444447,50.56333333333333]}"
LFLY,Bron,Lyon,France,FRA,45.72944444,4.938888889,"{""type"":""Point"",""coordinates"":[4.938888888888889,45.72944444444445]}"
LFLL,Saint Exupery,Lyon,France,FRA,45.72555556,5.081111111,"{""type"":""Point"",""coordinates"":[5.0811111111111105,45.72555555555556]}"
LFML,Marseille/Provence,Marseille/Provence,France,FRA,43.43666667,5.215,"{""type"":""Point"",""coordinates"":[5.215,43.43666666666666]}"
LFMT,Montpellier/Mediterranee,Montpellier/Mediterranee,France,FRA,43.58333333,3.961388889,"{""type"":""Point"",""coordinates"":[3.961388888888889,43.583333333333336]}"
LFSN,Essey,Nancy,France,FRA,48.69222222,6.226111111,"{""type"":""Point"",""coordinates"":[6.226111111111111,48.69222222222222]}"
LFRS,Nantes/Atlantique,Nantes/Atlantique,France,FRA,47.15694444,-1.607777778,"{""type"":""Point"",""coordinates"":[-1.607777777777778,47.15694444444444]}"
LFMN,Nice/Cote D'Azur,Nice/Cote D'Azur,France,FRA,43.66527778,7.215,"{""type"":""Point"",""coordinates"":[7.215,43.665277777777774]}"
LFTW,Garons,Nimes,France,FRA,43.7575,4.416388889,"{""type"":""Point"",""coordinates"":[4.416388888888889,43.7575]}"
LFPO,Orly,Paris,France,FRA,48.72333333,2.379444444,"{""type"":""Point"",""coordinates"":[2.3794444444444447,48.723333333333336]}"
LFPB,Le Bourget,Paris,France,FRA,48.96944444,2.441388889,"{""type"":""Point"",""coordinates"":[2.441388888888889,48.96944444444445]}"
LFPG,Charles-De-Gaulle,Paris,France,FRA,49.00972222,2.547777778,"{""type"":""Point"",""coordinates"":[2.5477777777777777,49.00972222222222]}"
LFBP,Pau/Pyrenees,Pau/Pyrenees,France,FRA,43.38,-0.418611111,"{""type"":""Point"",""coordinates"":[-0.41861111111111116,43.38]}"
LFMP,Rivesaltes,Perpignan,France,FRA,42.74083333,2.869722222,"{""type"":""Point"",""coordinates"":[2.8697222222222223,42.740833333333335]}"
LFBI,Biard,Poitiers,France,FRA,46.5875,0.306666667,"{""type"":""Point"",""coordinates"":[0.30666666666666664,46.587500000000006]}"
LFRQ,Pluguffan,Quimper,France,FRA,47.975,-4.167777778,"{""type"":""Point"",""coordinates"":[-4.167777777777778,47.975]}"
LFRN,St Jacques,Rennes,France,FRA,48.07194444,-1.732222222,"{""type"":""Point"",""coordinates"":[-1.7322222222222223,48.07194444444445]}"
LFRT,Armor,St Brieuc,France,FRA,48.5375,-2.856666667,"{""type"":""Point"",""coordinates"":[-2.856666666666667,48.5375]}"
LFMH,Boutheon,St Etienne,France,FRA,45.53416667,4.297222222,"{""type"":""Point"",""coordinates"":[4.2972222222222225,45.534166666666664]}"
LFRZ,Montoir,St Nazaire,France,FRA,47.31055556,-2.156666667,"{""type"":""Point"",""coordinates"":[-2.1566666666666667,47.31055555555555]}"
LFST,Entzheim,Strasbourg,France,FRA,48.54194444,7.634444444,"{""type"":""Point"",""coordinates"":[7.634444444444444,48.54194444444444]}"
LFBT,Lourdes-Pyrenees,Tarbes,France,FRA,43.18555556,-0.002777778,"{""type"":""Point"",""coordinates"":[-0.002777777777777778,43.18555555555555]}"
LFBO,Blagnac,Toulouse,France,FRA,43.635,1.367777778,"{""type"":""Point"",""coordinates"":[1.3677777777777778,43.635]}"
LFOT,Val De Loire AB,Tours,France,FRA,47.43184167,0.723180556,"{""type"":""Point"",""coordinates"":[0.7231805555555556,47.431841666666664]}"
LFPN,Toussus-Le-Noble,Toussus-Le-Noble,France,FRA,48.74972222,2.111111111,"{""type"":""Point"",""coordinates"":[2.111111111111111,48.749722222222225]}"
SOCA,Felix Eboue,Cayenne,French Guiana,GUF,4.819722222,-52.36194444,"{""type"":""Point"",""coordinates"":[-52.36194444444445,4.819722222222222]}"
NTAA,Faaa,Tahiti I,French Pacific O.T.,PYF,-17.55666667,-149.6113889,"{""type"":""Point"",""coordinates"":[-149.61138888888888,-17.55666666666667]}"
FOON,M'Vengue,Franceville,Gabon,GAB,-1.651944444,13.43472222,"{""type"":""Point"",""coordinates"":[13.434722222222222,-1.6519444444444444]}"
FOOL,Leon M'BA,Libreville,Gabon,GAB,0.458333333,9.412222222,"{""type"":""Point"",""coordinates"":[9.412222222222223,0.45833333333333337]}"
FOOG,Port Gentil,Port Gentil,Gabon,GAB,-0.719277778,8.751361111,"{""type"":""Point"",""coordinates"":[8.75136111111111,-0.7192777777777778]}"
GBYD,Banjul Intl,Banjul,Gambia,GMB,13.34252222,-16.65781389,"{""type"":""Point"",""coordinates"":[-16.65781388888889,13.342522222222224]}"
UGKO,Kopitnari,Kutaisi,Georgia,GEO,42.176825,42.48271389,"{""type"":""Point"",""coordinates"":[42.48271388888889,42.176825]}"
EDMA,Augsburg,Augsburg,Germany,DEU,48.42515833,10.93176389,"{""type"":""Point"",""coordinates"":[10.931763888888888,48.42515833333333]}"
EDBH,Barth,Barth,Germany,DEU,54.338175,12.71010556,"{""type"":""Point"",""coordinates"":[12.710105555555554,54.338175]}"
EDAB,Bautzen,Bautzen,Germany,DEU,51.19353056,14.51974722,"{""type"":""Point"",""coordinates"":[14.519747222222223,51.193530555555554]}"
EDQD,Bayreuth,Bayreuth,Germany,DEU,49.98442778,11.63856944,"{""type"":""Point"",""coordinates"":[11.638569444444444,49.98442777777778]}"
EDDT,Tegel,Berlin,Germany,DEU,52.55968611,13.28771111,"{""type"":""Point"",""coordinates"":[13.287711111111111,52.559686111111105]}"
EDDB,Schonefeld,Berlin,Germany,DEU,52.36224722,13.50067222,"{""type"":""Point"",""coordinates"":[13.500672222222223,52.36224722222222]}"
EDLI,Bielefeld,Bielefeld,Germany,DEU,51.96472222,8.544722222,"{""type"":""Point"",""coordinates"":[8.544722222222221,51.96472222222223]}"
EDKB,Hangelar,Bonn,Germany,DEU,50.76888889,7.163888889,"{""type"":""Point"",""coordinates"":[7.16388888888889,50.76888888888889]}"
EDVE,Braunschweig-Wolfsburg,Braunschweig-Wolfsburg,Germany,DEU,52.31936111,10.55888889,"{""type"":""Point"",""coordinates"":[10.55888888888889,52.319361111111114]}"
EDDW,Bremen,Bremen,Germany,DEU,53.0474,8.786747222,"{""type"":""Point"",""coordinates"":[8.786747222222223,53.047399999999996]}"
EDWB,Bremerhaven,Bremerhaven,Germany,DEU,53.50708056,8.572877778,"{""type"":""Point"",""coordinates"":[8.572877777777778,53.507080555555554]}"
EDQC,Brandensteinsebene,Coburg,Germany,DEU,50.26327778,10.99505,"{""type"":""Point"",""coordinates"":[10.995049999999999,50.26327777777778]}"
EDDK,Cologne-Bonn,Cologne-Bonn,Germany,DEU,50.86591667,7.142744444,"{""type"":""Point"",""coordinates"":[7.142744444444445,50.86591666666667]}"
EDCD,Cottbus-Drewitz,Cottbus-Drewitz,Germany,DEU,51.889475,14.53198611,"{""type"":""Point"",""coordinates"":[14.531986111111111,51.889475]}"
EDTD,Villingen,Donaueschingen,Germany,DEU,47.97351944,8.522111111,"{""type"":""Point"",""coordinates"":[8.522111111111112,47.97351944444445]}"
EDLW,Dortmund,Dortmund,Germany,DEU,51.51831389,7.612241667,"{""type"":""Point"",""coordinates"":[7.612241666666666,51.51831388888889]}"
EDDC,Dresden,Dresden,Germany,DEU,51.13434444,13.768,"{""type"":""Point"",""coordinates"":[13.768,51.134344444444444]}"
EDDL,Dusseldorf,Dusseldorf,Germany,DEU,51.280925,6.757311111,"{""type"":""Point"",""coordinates"":[6.757311111111111,51.280924999999996]}"
EDME,Eggenfelden,Eggenfelden,Germany,DEU,48.39611111,12.72361111,"{""type"":""Point"",""coordinates"":[12.723611111111111,48.39611111111111]}"
EDWE,Emden,Emden,Germany,DEU,53.390975,7.225597222,"{""type"":""Point"",""coordinates"":[7.2255972222222224,53.390975]}"
EDDE,Erfurt-Weimar,Erfurt-Weimar,Germany,DEU,50.97981111,10.95810556,"{""type"":""Point"",""coordinates"":[10.958105555555555,50.97981111111111]}"
EDLE,Essen-Mulheim,Essen-Mulheim,Germany,DEU,51.40222222,6.937222222,"{""type"":""Point"",""coordinates"":[6.937222222222222,51.40222222222222]}"
EDXF,Schaferhaus,Flensburg,Germany,DEU,54.77333333,9.378833333,"{""type"":""Point"",""coordinates"":[9.378833333333334,54.77333333333333]}"
EDDF,Frankfurt/Main,Frankfurt/Main,Germany,DEU,50.03330556,8.570455556,"{""type"":""Point"",""coordinates"":[8.570455555555556,50.03330555555556]}"
EDFE,Frankfurt-Egelsbach,Frankfurt-Egelsbach,Germany,DEU,49.96082222,8.641461111,"{""type"":""Point"",""coordinates"":[8.641461111111111,49.96082222222223]}"
EDFH,Frankfurt-Hahn,Frankfurt-Hahn,Germany,DEU,49.94867222,7.263891667,"{""type"":""Point"",""coordinates"":[7.263891666666667,49.94867222222222]}"
EDTF,Freiburg i. Br.,Freiburg i. Br.,Germany,DEU,48.0205,7.833666667,"{""type"":""Point"",""coordinates"":[7.833666666666667,48.0205]}"
EDNY,Friedrichshafen,Friedrichshafen,Germany,DEU,47.67131667,9.511486111,"{""type"":""Point"",""coordinates"":[9.511486111111111,47.67131666666666]}"
EDHI,Finkenwerder,Hamburg,Germany,DEU,53.53379722,9.832286111,"{""type"":""Point"",""coordinates"":[9.832286111111111,53.53379722222222]}"
EDDH,Hamburg,Hamburg,Germany,DEU,53.63038889,9.988227778,"{""type"":""Point"",""coordinates"":[9.988227777777777,53.63038888888889]}"
EDDV,Hannover,Hannover,Germany,DEU,52.46021389,9.683522222,"{""type"":""Point"",""coordinates"":[9.683522222222223,52.460213888888894]}"
EDAH,Heringsdorf,Heringsdorf,Germany,DEU,53.87870556,14.15234722,"{""type"":""Point"",""coordinates"":[14.152347222222222,53.878705555555555]}"
EDQM,Hof-Plauen,Hof-Plauen,Germany,DEU,50.28883611,11.85491944,"{""type"":""Point"",""coordinates"":[11.854919444444445,50.28883611111111]}"
ETSI,Manching,Ingolstadt,Germany,DEU,48.71566667,11.53366667,"{""type"":""Point"",""coordinates"":[11.533666666666667,48.71566666666667]}"
EDSB,Karlsruhe/Baden-Baden,Karlsruhe/Baden-Baden,Germany,DEU,48.77935278,8.0805,"{""type"":""Point"",""coordinates"":[8.080499999999999,48.779352777777774]}"
EDVK,Kassel-Calden,Kassel-Calden,Germany,DEU,51.42079167,9.392158333,"{""type"":""Point"",""coordinates"":[9.392158333333333,51.420791666666666]}"
EDHK,Holtenau,Kiel,Germany,DEU,54.37946944,10.14514722,"{""type"":""Point"",""coordinates"":[10.145147222222223,54.379469444444446]}"
EDTZ,Konstanz,Konstanz,Germany,DEU,47.68194444,9.137222222,"{""type"":""Point"",""coordinates"":[9.137222222222222,47.68194444444444]}"
ETNL,Rostock-Laage,Laage,Germany,DEU,53.91816667,12.27933333,"{""type"":""Point"",""coordinates"":[12.279333333333334,53.918166666666664]}"
EDTL,Lahr,Lahr,Germany,DEU,48.36925,7.827722222,"{""type"":""Point"",""coordinates"":[7.827722222222222,48.36925]}"
EDML,Landshut,Landshut,Germany,DEU,48.51166667,12.03333333,"{""type"":""Point"",""coordinates"":[12.033333333333333,48.51166666666666]}"
EDAC,Leipzig-Altenburg,Leipzig-Altenburg,Germany,DEU,50.98181667,12.50636111,"{""type"":""Point"",""coordinates"":[12.506361111111111,50.98181666666667]}"
EDDP,Leipzig-Halle,Leipzig-Halle,Germany,DEU,51.42399167,12.23638333,"{""type"":""Point"",""coordinates"":[12.236383333333333,51.423991666666666]}"
EDHL,Blankensee,Lubeck,Germany,DEU,53.80536667,10.71922222,"{""type"":""Point"",""coordinates"":[10.719222222222223,53.805366666666664]}"
EDBM,Magdeburg/City,Magdeburg/City,Germany,DEU,52.07365833,11.62646667,"{""type"":""Point"",""coordinates"":[11.626466666666667,52.073658333333334]}"
EDFM,Mannheim City,Mannheim,Germany,DEU,49.47270556,8.514263889,"{""type"":""Point"",""coordinates"":[8.51426388888889,49.47270555555556]}"
EDLN,Monchengladbach,Monchengladbach,Germany,DEU,51.23027778,6.504444444,"{""type"":""Point"",""coordinates"":[6.504444444444444,51.23027777777778]}"
EDDM,Munich,Munich,Germany,DEU,48.35378333,11.78608611,"{""type"":""Point"",""coordinates"":[11.78608611111111,48.35378333333333]}"
EDDG,Munster/Osnabruck,Munster/Osnabruck,Germany,DEU,52.13464167,7.684830556,"{""type"":""Point"",""coordinates"":[7.684830555555556,52.13464166666667]}"
EDLV,Niederrhein,Niederrhein,Germany,DEU,51.60241389,6.142172222,"{""type"":""Point"",""coordinates"":[6.142172222222222,51.60241388888889]}"
EDDN,Nurnberg,Nurnberg,Germany,DEU,49.4987,11.07800833,"{""type"":""Point"",""coordinates"":[11.078008333333333,49.4987]}"
EDMO,Oberpfaffenhofen,Oberpfaffenhofen,Germany,DEU,48.08136389,11.28306667,"{""type"":""Point"",""coordinates"":[11.283066666666668,48.081363888888895]}"
EDTO,Offenburg,Offenburg,Germany,DEU,48.44983333,7.924666667,"{""type"":""Point"",""coordinates"":[7.924666666666667,48.44983333333333]}"
EDLP,Paderborn/Lippstadt,Paderborn/Lippstadt,Germany,DEU,51.61408889,8.616316667,"{""type"":""Point"",""coordinates"":[8.616316666666666,51.614088888888894]}"
EDDR,Saarbrucken,Saarbrucken,Germany,DEU,49.21455278,7.109508333,"{""type"":""Point"",""coordinates"":[7.109508333333333,49.21455277777778]}"
EDTY,Schwabisch Hall,Schwabisch Hall,Germany,DEU,49.11831667,9.783955556,"{""type"":""Point"",""coordinates"":[9.783955555555556,49.118316666666665]}"
EDOP,Schwerin-Parchim,Schwerin-Parchim,Germany,DEU,53.42699722,11.78343611,"{""type"":""Point"",""coordinates"":[11.783436111111111,53.42699722222222]}"
EDGS,Siegerland,Siegerland,Germany,DEU,50.70765833,8.082969444,"{""type"":""Point"",""coordinates"":[8.082969444444444,50.707658333333335]}"
EDLS,Vreden,Stadtlohn,Germany,DEU,51.99583333,6.840555556,"{""type"":""Point"",""coordinates"":[6.8405555555555555,51.99583333333334]}"
EDMS,Straubing,Straubing,Germany,DEU,48.90095,12.51818611,"{""type"":""Point"",""coordinates"":[12.518186111111111,48.90095]}"
EDDS,Stuttgart,Stuttgart,Germany,DEU,48.68987778,9.221963889,"{""type"":""Point"",""coordinates"":[9.221963888888888,48.689877777777774]}"
EDXW,Sylt,Sylt,Germany,DEU,54.91163611,8.342386111,"{""type"":""Point"",""coordinates"":[8.34238611111111,54.91163611111111]}"
EDRT,Fohren,Trier,Germany,DEU,49.86416667,6.787777778,"{""type"":""Point"",""coordinates"":[6.7877777777777775,49.86416666666667]}"
EDFV,Worms,Worms,Germany,DEU,49.60638889,8.366666667,"{""type"":""Point"",""coordinates"":[8.366666666666667,49.60638888888889]}"
EDRZ,Zweibrucken,Zweibrucken,Germany,DEU,49.209525,7.400647222,"{""type"":""Point"",""coordinates"":[7.400647222222222,49.209525]}"
DGAA,Kotoka Intl,Accra,Ghana,GHA,5.604413889,-0.167544444,"{""type"":""Point"",""coordinates"":[-0.16754444444444444,5.604413888888889]}"
DGSI,Kumasi,Kumasi,Ghana,GHA,6.714583333,-1.590830556,"{""type"":""Point"",""coordinates"":[-1.5908305555555557,6.714583333333334]}"
DGLE,Tamale,Tamale,Ghana,GHA,9.557266667,-0.863172222,"{""type"":""Point"",""coordinates"":[-0.8631722222222222,9.557266666666667]}"
LXGB,Gibraltar,Gibraltar,Gibraltar,GIB,36.15116667,-5.349666667,"{""type"":""Point"",""coordinates"":[-5.349666666666667,36.15116666666667]}"
LGAL,Dimokritos,Alexandroupolis,Greece,GRC,40.85583333,25.95611111,"{""type"":""Point"",""coordinates"":[25.95611111111111,40.85583333333334]}"
LGBL,Nea Anchialos,Almiros,Greece,GRC,39.21944444,22.79444444,"{""type"":""Point"",""coordinates"":[22.794444444444448,39.21944444444445]}"
LGAD,Andravida,Andravida,Greece,GRC,37.92527778,21.29138889,"{""type"":""Point"",""coordinates"":[21.29138888888889,37.92527777777777]}"
LGRX,Araxos,Araxos,Greece,GRC,38.15111111,21.42555556,"{""type"":""Point"",""coordinates"":[21.425555555555558,38.151111111111106]}"
LGAV,Eleftherios Venizelos Intl,Athens,Greece,GRC,37.9367,23.9445,"{""type"":""Point"",""coordinates"":[23.9445,37.936699999999995]}"
LGSA,Ioannis Daskalogiannis,Chania,Greece,GRC,35.53138889,24.15111111,"{""type"":""Point"",""coordinates"":[24.15111111111111,35.53138888888889]}"
LGHI,Omiros,Chios,Greece,GRC,38.34333333,26.14055556,"{""type"":""Point"",""coordinates"":[26.140555555555554,38.343333333333334]}"
LGEL,Elefsis,Elefsis,Greece,GRC,38.0695,23.55416667,"{""type"":""Point"",""coordinates"":[23.554166666666667,38.069500000000005]}"
LGIO,King Pyrros,Ioannina,Greece,GRC,39.69722222,20.82194444,"{""type"":""Point"",""coordinates"":[20.821944444444444,39.697222222222216]}"
LGIR,Nikos Kazantzakis,Iraklion,Greece,GRC,35.33972222,25.18027778,"{""type"":""Point"",""coordinates"":[25.18027777777778,35.33972222222222]}"
LGKL,Kalamata,Kalamata,Greece,GRC,37.06833333,22.02527778,"{""type"":""Point"",""coordinates"":[22.025277777777777,37.068333333333335]}"
LGKP,Karpathos,Karpathos,Greece,GRC,35.42111111,27.14583333,"{""type"":""Point"",""coordinates"":[27.145833333333332,35.42111111111111]}"
LGKV,Megas Alexandros,Kavala,Greece,GRC,40.91388889,24.61972222,"{""type"":""Point"",""coordinates"":[24.619722222222222,40.913888888888884]}"
LGKF,Anna Pollatou,Kefallinia,Greece,GRC,38.12,20.50055556,"{""type"":""Point"",""coordinates"":[20.500555555555554,38.12]}"
LGKR,Ioannis Kapodistrias,Kerkira,Greece,GRC,39.60194444,19.91222222,"{""type"":""Point"",""coordinates"":[19.91222222222222,39.60194444444445]}"
LGKO,Ippokratis,Kos,Greece,GRC,36.79472222,27.09111111,"{""type"":""Point"",""coordinates"":[27.09111111111111,36.79472222222222]}"
LGLM,Ifaistos,Limnos,Greece,GRC,39.91722222,25.23638889,"{""type"":""Point"",""coordinates"":[25.23638888888889,39.91722222222222]}"
LGMK,Mikonos,Mikonos,Greece,GRC,37.43722222,25.34722222,"{""type"":""Point"",""coordinates"":[25.34722222222222,37.43722222222222]}"
LGMT,Odysseas Elytis,Mitilini,Greece,GRC,39.05777778,26.59861111,"{""type"":""Point"",""coordinates"":[26.59861111111111,39.05777777777777]}"
LGPZ,Aktion,Preveza,Greece,GRC,38.92555556,20.765,"{""type"":""Point"",""coordinates"":[20.765,38.925555555555555]}"
LGRP,Diagoras,Rodos,Greece,GRC,36.40527778,28.08611111,"{""type"":""Point"",""coordinates"":[28.08611111111111,36.405277777777776]}"
LGSM,Aristarchos of Samos,Samos,Greece,GRC,37.68916667,26.91222222,"{""type"":""Point"",""coordinates"":[26.91222222222222,37.689166666666665]}"
LGSR,Santorini,Santorini,Greece,GRC,36.39916667,25.47916667,"{""type"":""Point"",""coordinates"":[25.479166666666664,36.399166666666666]}"
LGSK,Alexandros Papadiamandis,Skiathos,Greece,GRC,39.1775,23.50361111,"{""type"":""Point"",""coordinates"":[23.503611111111113,39.177499999999995]}"
LGTS,Makedonia,Thessaloniki,Greece,GRC,40.51972222,22.97091667,"{""type"":""Point"",""coordinates"":[22.970916666666664,40.51972222222222]}"
LGZA,Dionisios Solomos,Zakinthos,Greece,GRC,37.75111111,20.88416667,"{""type"":""Point"",""coordinates"":[20.884166666666665,37.75111111111111]}"
BGAA,Aasiaat,Aasiaat,Greenland,GRL,68.72184722,-52.78474722,"{""type"":""Point"",""coordinates"":[-52.78474722222222,68.72184722222222]}"
BGJN,Ilulissat,Ilulissat,Greenland,GRL,69.24321667,-51.05711111,"{""type"":""Point"",""coordinates"":[-51.057111111111105,69.24321666666667]}"
BGSF,Kangerlussuaq,Kangerlussuaq,Greenland,GRL,67.01696944,-50.689325,"{""type"":""Point"",""coordinates"":[-50.689325,67.01696944444444]}"
BGKK,Kulusuk,Kulusuk,Greenland,GRL,65.57361111,-37.12361111,"{""type"":""Point"",""coordinates"":[-37.12361111111111,65.5736111111111]}"
BGMQ,Maniitsoq,Maniitsoq,Greenland,GRL,65.41246389,-52.93941944,"{""type"":""Point"",""coordinates"":[-52.93941944444444,65.4124638888889]}"
BGBW,Narsarsuaq,Narsarsuaq,Greenland,GRL,61.16071944,-45.425675,"{""type"":""Point"",""coordinates"":[-45.425675,61.160719444444446]}"
BGCO,Nerlerit Inaat,Nerlerit Inaat,Greenland,GRL,70.74308333,-22.65055556,"{""type"":""Point"",""coordinates"":[-22.650555555555552,70.74308333333333]}"
BGGH,Nuuk,Nuuk,Greenland,GRL,64.19092222,-51.67806389,"{""type"":""Point"",""coordinates"":[-51.678063888888886,64.19092222222223]}"
BGQQ,Qaanaaq,Qaanaaq,Greenland,GRL,77.48865,-69.38873056,"{""type"":""Point"",""coordinates"":[-69.38873055555557,77.48865]}"
BGSS,Sisimiut,Sisimiut,Greenland,GRL,66.95128889,-53.72931944,"{""type"":""Point"",""coordinates"":[-53.72931944444445,66.9512888888889]}"
BGUK,Upernavik,Upernavik,Greenland,GRL,72.79018889,-56.13058611,"{""type"":""Point"",""coordinates"":[-56.130586111111114,72.79018888888889]}"
BGUQ,Qaarsut,Uummannaq,Greenland,GRL,70.73423056,-52.69620278,"{""type"":""Point"",""coordinates"":[-52.69620277777778,70.73423055555556]}"
TGPZ,Lauriston,Carriacou Is,Grenada,GRD,12.47694444,-61.47222222,"{""type"":""Point"",""coordinates"":[-61.47222222222222,12.476944444444445]}"
TGPY,Maurice Bishop Intl,St Georges,Grenada,GRD,12.00424722,-61.78619167,"{""type"":""Point"",""coordinates"":[-61.78619166666667,12.004247222222222]}"
TFFR,Le Raizet,Pointe-A-Pitre,Guadeloupe,GLP,16.26416667,-61.52583333,"{""type"":""Point"",""coordinates"":[-61.52583333333333,16.264166666666668]}"
TFFJ,St Barthelemy I,St Barthelemy I,Guadeloupe,GLP,17.90444444,-62.84388889,"{""type"":""Point"",""coordinates"":[-62.84388888888889,17.904444444444444]}"
TFFG,Grand Case,St Martin I,Guadeloupe,GLP,18.10055556,-63.04888889,"{""type"":""Point"",""coordinates"":[-63.04888888888889,18.100555555555555]}"
PGUM,Guam Intl,Guam,Guam,GUM,13.48395,144.7971306,"{""type"":""Point"",""coordinates"":[144.79713055555555,13.483949999999998]}"
PGUA,Andersen AFB,Guam I,Guam,GUM,13.58388333,144.9300583,"{""type"":""Point"",""coordinates"":[144.93005833333333,13.583883333333334]}"
MGMM,Mundo Maya Intl,Flores,Guatemala,GTM,16.91388889,-89.86638889,"{""type"":""Point"",""coordinates"":[-89.86638888888888,16.913888888888888]}"
MGGT,La Aurora Intl,Guatemala City,Guatemala,GTM,14.58333333,-90.5275,"{""type"":""Point"",""coordinates"":[-90.5275,14.583333333333334]}"
MGPB,Puerto Barrios,Puerto Barrios,Guatemala,GTM,15.74833333,-88.585,"{""type"":""Point"",""coordinates"":[-88.585,15.748333333333333]}"
MGSJ,San Jose,Puerto San Jose,Guatemala,GTM,13.93611111,-90.83583333,"{""type"":""Point"",""coordinates"":[-90.83583333333333,13.936111111111112]}"
GUCY,Gbessia,Conakry,Guinea Rep,GIN,9.576888889,-13.61191667,"{""type"":""Point"",""coordinates"":[-13.611916666666666,9.576888888888888]}"
GULB,Tata,Labe,Guinea Rep,GIN,11.33130556,-12.296,"{""type"":""Point"",""coordinates"":[-12.296,11.331305555555556]}"
GUNZ,Konia,Nzerekore,Guinea Rep,GIN,7.815580556,-8.703805556,"{""type"":""Point"",""coordinates"":[-8.703805555555554,7.815580555555555]}"
GGOV,Osvaldo Viera,Bissau,Guinea-Bissau,GNB,11.88886111,-15.65572222,"{""type"":""Point"",""coordinates"":[-15.655722222222222,11.88886111111111]}"
SYCJ,Cheddi Jagan Intl,Georgetown,Guyana,GUY,6.498927778,-58.25435278,"{""type"":""Point"",""coordinates"":[-58.254352777777775,6.498927777777777]}"
SYGO,Ogle Intl,Georgetown,Guyana,GUY,6.805911111,-58.10760278,"{""type"":""Point"",""coordinates"":[-58.10760277777778,6.805911111111111]}"
MTCH,Cap Haitien Intl,Cap Haitien,Haiti,HTI,19.73277778,-72.19472222,"{""type"":""Point"",""coordinates"":[-72.19472222222223,19.732777777777777]}"
MTPP,Toussaint Louverture Intl,Port-Au-Prince,Haiti,HTI,18.58,-72.2925,"{""type"":""Point"",""coordinates"":[-72.2925,18.58]}"
MHLC,Goloson Intl,La Ceiba,Honduras,HND,15.74236389,-86.85330278,"{""type"":""Point"",""coordinates"":[-86.85330277777777,15.742363888888889]}"
MHRO,Juan Manuel Galvez Intl,Roatan,Honduras,HND,16.31728333,-86.52229444,"{""type"":""Point"",""coordinates"":[-86.52229444444444,16.317283333333332]}"
MHLM,Ramon Villeda Morales Intl,San Pedro Sula,Honduras,HND,15.45195833,-87.92415278,"{""type"":""Point"",""coordinates"":[-87.92415277777778,15.451958333333332]}"
MHTG,Toncontin Intl,Tegucigalpa,Honduras,HND,14.06025556,-87.21741111,"{""type"":""Point"",""coordinates"":[-87.21741111111112,14.060255555555557]}"
VHHH,Hong Kong Intl,Hong Kong,Hong Kong,HKG,22.30888889,113.9147222,"{""type"":""Point"",""coordinates"":[113.91472222222222,22.30888888888889]}"
LHBP,Liszt Ferenc Intl,Budapest,Hungary,HUN,47.43944444,19.26194444,"{""type"":""Point"",""coordinates"":[19.261944444444445,47.43944444444444]}"
BIAR,Akureyri,Akureyri,Iceland,ISL,65.65666667,-18.07194444,"{""type"":""Point"",""coordinates"":[-18.071944444444444,65.65666666666667]}"
BIEG,Egilsstadir,Egilsstadir,Iceland,ISL,65.28333333,-14.40138889,"{""type"":""Point"",""coordinates"":[-14.401388888888889,65.28333333333333]}"
BIKF,Keflavik,Keflavik,Iceland,ISL,63.985,-22.60555556,"{""type"":""Point"",""coordinates"":[-22.605555555555558,63.985]}"
BIRK,Reykjavik,Reykjavik,Iceland,ISL,64.13,-21.94055556,"{""type"":""Point"",""coordinates"":[-21.940555555555555,64.13]}"
VAAH,Ahmedabad,Ahmedabad,India,IND,23.07111111,72.62638889,"{""type"":""Point"",""coordinates"":[72.62638888888888,23.07111111111111]}"
VIAR,Sri Guru Ram Dass Jee Intl,Amritsar,India,IND,31.70472222,74.80194444,"{""type"":""Point"",""coordinates"":[74.80194444444444,31.704722222222223]}"
VOBL,Kempegowda Intl,Bengaluru,India,IND,13.19888889,77.70555556,"{""type"":""Point"",""coordinates"":[77.70555555555556,13.19888888888889]}"
VOCL,Calicut,Calicut,India,IND,11.13777778,75.95055556,"{""type"":""Point"",""coordinates"":[75.95055555555555,11.137777777777778]}"
VOMM,Chennai Intl,Chennai,India,IND,12.995,80.17555556,"{""type"":""Point"",""coordinates"":[80.17555555555556,12.995]}"
VOCI,Cochin Intl,Cochin,India,IND,10.15388889,76.40694444,"{""type"":""Point"",""coordinates"":[76.40694444444445,10.15388888888889]}"
VOCB,Coimbatore,Coimbatore,India,IND,11.02694444,77.04166667,"{""type"":""Point"",""coordinates"":[77.04166666666667,11.026944444444446]}"
VIDP,Indira Gandhi Intl,Delhi,India,IND,28.56861111,77.11222222,"{""type"":""Point"",""coordinates"":[77.11222222222221,28.56861111111111]}"
VEGY,Gaya,Gaya,India,IND,24.74805556,84.9425,"{""type"":""Point"",""coordinates"":[84.94250000000001,24.748055555555556]}"
VEGT,Guwahati,Guwahati,India,IND,26.105,91.58555556,"{""type"":""Point"",""coordinates"":[91.58555555555554,26.105]}"
VOHS,Rajiv Gandhi Intl,Hyderabad,India,IND,17.24055556,78.42888889,"{""type"":""Point"",""coordinates"":[78.42888888888889,17.240555555555556]}"
VIJP,Jaipur,Jaipur,India,IND,26.82416667,75.8025,"{""type"":""Point"",""coordinates"":[75.8025,26.824166666666667]}"
VECC,Netaji Subhash Chandra Bose Intl,Kolkata,India,IND,22.65388889,88.44666667,"{""type"":""Point"",""coordinates"":[88.44666666666667,22.653888888888886]}"
VILK,Chaudhary Charan Singh,Lucknow,India,IND,26.76194444,80.88333333,"{""type"":""Point"",""coordinates"":[80.88333333333334,26.761944444444445]}"
VOML,Mangalore,Mangalore,India,IND,12.96194444,74.88972222,"{""type"":""Point"",""coordinates"":[74.88972222222223,12.961944444444443]}"
VABB,Chhatrapati Shivaji Intl,Mumbai,India,IND,19.09166667,72.86611111,"{""type"":""Point"",""coordinates"":[72.86611111111111,19.091666666666665]}"
VANP,Dr. Ambedkar Intl,Nagpur,India,IND,21.09194444,79.04833333,"{""type"":""Point"",""coordinates"":[79.04833333333333,21.091944444444444]}"
VEPT,Patna,Patna,India,IND,25.59361111,85.09194444,"{""type"":""Point"",""coordinates"":[85.09194444444444,25.59361111111111]}"
VOTV,Thiruvananthapuram,Thiruvananthapuram,India,IND,8.479444444,76.92,"{""type"":""Point"",""coordinates"":[76.92,8.479444444444445]}"
VOTR,Tiruchirappalli,Tiruchirappalli,India,IND,10.76555556,78.715,"{""type"":""Point"",""coordinates"":[78.715,10.765555555555556]}"
WAPP,Pattimura,Ambon,Indonesia,IDN,-3.7075,128.0894444,"{""type"":""Point"",""coordinates"":[128.08944444444447,-3.7075]}"
WADD,I Gusti Ngurah Rai,Bali,Indonesia,IDN,-8.7475,115.1691667,"{""type"":""Point"",""coordinates"":[115.16916666666667,-8.747499999999999]}"
WALL,Sultan Aji Muhammad Sulaiman Sepinggan,Balikpapan,Indonesia,IDN,-1.267222222,116.8938889,"{""type"":""Point"",""coordinates"":[116.8938888888889,-1.2672222222222222]}"
WAOO,Syamsudin Noor,Banjarmasin,Indonesia,IDN,-3.439802778,114.7528278,"{""type"":""Point"",""coordinates"":[114.75282777777778,-3.439802777777778]}"
WIDD,Hang Nadim,Batam,Indonesia,IDN,1.118611111,104.1138889,"{""type"":""Point"",""coordinates"":[104.11388888888888,1.1186111111111112]}"
WABB,Frans Kaisiepo,Biak,Indonesia,IDN,-1.191808333,136.1098917,"{""type"":""Point"",""coordinates"":[136.10989166666667,-1.1918083333333334]}"
WIII,Soekarno-Hatta Intl,Jakarta,Indonesia,IDN,-6.123611111,106.6611111,"{""type"":""Point"",""coordinates"":[106.66111111111111,-6.123611111111111]}"
WIHH,Halim Intl,Jakarta,Indonesia,IDN,-6.2675,106.8863889,"{""type"":""Point"",""coordinates"":[106.8863888888889,-6.2675]}"
WAJJ,Sentani,Jayapura,Indonesia,IDN,-2.576944444,140.5163889,"{""type"":""Point"",""coordinates"":[140.51638888888888,-2.576944444444444]}"
WATT,El Tari,Kupang,Indonesia,IDN,-10.17777778,123.6638889,"{""type"":""Point"",""coordinates"":[123.66388888888889,-10.177777777777777]}"
WAAA,Sultan Hasanuddin,Makassar,Indonesia,IDN,-5.060833333,119.5544444,"{""type"":""Point"",""coordinates"":[119.55444444444444,-5.060833333333333]}"
WAMM,Ratulangi,Manado,Indonesia,IDN,1.545555556,124.925,"{""type"":""Point"",""coordinates"":[124.92500000000001,1.5455555555555553]}"
WIMM,Kualanamu International,Medan,Indonesia,IDN,3.642222222,98.88527778,"{""type"":""Point"",""coordinates"":[98.88527777777779,3.6422222222222222]}"
WAKK,Mopah,Merauke,Indonesia,IDN,-8.521111111,140.4169444,"{""type"":""Point"",""coordinates"":[140.41694444444443,-8.521111111111113]}"
WIPP,Sultan M Badaruddin II,Palembang,Indonesia,IDN,-2.901225,104.7000444,"{""type"":""Point"",""coordinates"":[104.70004444444444,-2.9012249999999997]}"
WIBB,Sultan Syarif Kasim II,Pekanbaru,Indonesia,IDN,0.463333333,101.4466667,"{""type"":""Point"",""coordinates"":[101.44666666666667,0.4633333333333333]}"
WIOO,Supadio,Pontianak,Indonesia,IDN,-0.148055556,109.4041667,"{""type"":""Point"",""coordinates"":[109.40416666666667,-0.14805555555555555]}"
WARR,Juanda,Surabaya,Indonesia,IDN,-7.383611111,112.78,"{""type"":""Point"",""coordinates"":[112.78,-7.383611111111112]}"
WIDN,Raja Haji Fisabilillah,Tanjung Pinang,Indonesia,IDN,0.918888889,104.5272222,"{""type"":""Point"",""coordinates"":[104.52722222222222,0.9188888888888889]}"
OIKB,Bandar Abbass Intl,Bandar Abbass,Iran,IRN,27.21861111,56.37777778,"{""type"":""Point"",""coordinates"":[56.37777777777778,27.21861111111111]}"
OIFM,Shahid Beheshti Intl,Esfahan,Iran,IRN,32.75083333,51.86277778,"{""type"":""Point"",""coordinates"":[51.86277777777778,32.75083333333333]}"
OIMM,Shahid Hashemi Nejad Intl,Mashhad,Iran,IRN,36.23416667,59.645,"{""type"":""Point"",""coordinates"":[59.644999999999996,36.23416666666667]}"
OISS,Shahid Dastghaib Intl,Shiraz,Iran,IRN,29.54027778,52.58861111,"{""type"":""Point"",""coordinates"":[52.58861111111111,29.540277777777778]}"
OITT,Tabriz Intl,Tabriz,Iran,IRN,38.13388889,46.235,"{""type"":""Point"",""coordinates"":[46.235,38.13388888888889]}"
OIIE,Imam Khomaini Intl,Tehran,Iran,IRN,35.41611111,51.15222222,"{""type"":""Point"",""coordinates"":[51.15222222222222,35.41611111111111]}"
OIII,Mehrabad Intl,Tehran,Iran,IRN,35.68888889,51.31472222,"{""type"":""Point"",""coordinates"":[51.31472222222222,35.68888888888888]}"
OIZH,Zahedan Intl,Zahedan,Iran,IRN,29.47333333,60.90333333,"{""type"":""Point"",""coordinates"":[60.90333333333333,29.473333333333333]}"
ORNI,Al-Ashraf Intl,Al Najaf,Iraq,IRQ,31.98972222,44.40416667,"{""type"":""Point"",""coordinates"":[44.40416666666667,31.989722222222223]}"
ORBI,Baghdad Intl,Baghdad,Iraq,IRQ,33.26253889,44.23457778,"{""type"":""Point"",""coordinates"":[44.23457777777778,33.26253888888889]}"
ORMM,Basrah Intl,Basrah,Iraq,IRQ,30.54906944,47.66214167,"{""type"":""Point"",""coordinates"":[47.66214166666666,30.549069444444445]}"
ORER,Erbil Intl,Erbil,Iraq,IRQ,36.23805556,43.94666667,"{""type"":""Point"",""coordinates"":[43.946666666666665,36.238055555555555]}"
ORBM,Mosul Intl,Mosul,Iraq,IRQ,36.30576111,43.14739722,"{""type"":""Point"",""coordinates"":[43.147397222222224,36.30576111111111]}"
ORSU,Sulaymaniyah Intl,Sulaymaniyah,Iraq,IRQ,35.56055556,45.31444444,"{""type"":""Point"",""coordinates"":[45.31444444444444,35.56055555555555]}"
EICK,Cork,Cork,Ireland,IRL,51.84138889,-8.491111111,"{""type"":""Point"",""coordinates"":[-8.49111111111111,51.84138888888889]}"
EIDW,Dublin Intl,Dublin,Ireland,IRL,53.42138889,-6.27,"{""type"":""Point"",""coordinates"":[-6.27,53.421388888888885]}"
EIKN,Knock,Ireland West,Ireland,IRL,53.91027778,-8.818611111,"{""type"":""Point"",""coordinates"":[-8.81861111111111,53.91027777777778]}"
EIKY,Kerry,Kerry,Ireland,IRL,52.18083333,-9.523888889,"{""type"":""Point"",""coordinates"":[-9.523888888888889,52.18083333333333]}"
EINN,Shannon,Shannon,Ireland,IRL,52.70197778,-8.924816667,"{""type"":""Point"",""coordinates"":[-8.924816666666667,52.70197777777778]}"
LLET,Eilat,Eilat,Israel,ISR,29.55833333,34.95888889,"{""type"":""Point"",""coordinates"":[34.95888888888889,29.558333333333334]}"
LLHA,Haifa,Haifa,Israel,ISR,32.80833333,35.04277778,"{""type"":""Point"",""coordinates"":[35.04277777777778,32.80833333333333]}"
LLOV,Ovda,Ovda,Israel,ISR,29.935,34.94083333,"{""type"":""Point"",""coordinates"":[34.94083333333333,29.935]}"
LLSD,Sde Dov,Tel Aviv,Israel,ISR,32.11416667,34.78194444,"{""type"":""Point"",""coordinates"":[34.78194444444444,32.11416666666667]}"
LLBG,Ben Gurion,Tel Aviv,Israel,ISR,32.00944444,34.88555556,"{""type"":""Point"",""coordinates"":[34.885555555555555,32.00944444444445]}"
LIMG,Albenga,Albenga,Italy,ITA,44.04583333,8.125555556,"{""type"":""Point"",""coordinates"":[8.125555555555556,44.045833333333334]}"
LIEA,Fertilia,Alghero,Italy,ITA,40.63111111,8.288611111,"{""type"":""Point"",""coordinates"":[8.288611111111111,40.63111111111111]}"
LIPY,Falconara,Ancona,Italy,ITA,43.61666667,13.36027778,"{""type"":""Point"",""coordinates"":[13.360277777777778,43.61666666666667]}"
LIMW,Aosta,Aosta,Italy,ITA,45.73833333,7.3675,"{""type"":""Point"",""coordinates"":[7.3675,45.73833333333334]}"
LIBD,Palese,Bari,Italy,ITA,41.13805556,16.765,"{""type"":""Point"",""coordinates"":[16.765,41.13805555555555]}"
LIME,Orio Al Serio,Bergamo,Italy,ITA,45.66888889,9.700277778,"{""type"":""Point"",""coordinates"":[9.700277777777776,45.66888888888889]}"
LIPE,Borgo Panigale,Bologna,Italy,ITA,44.53083333,11.29694444,"{""type"":""Point"",""coordinates"":[11.296944444444444,44.530833333333334]}"
LIPB,Bolzano,Bolzano,Italy,ITA,46.46027778,11.32638889,"{""type"":""Point"",""coordinates"":[11.32638888888889,46.46027777777778]}"
LIBR,Casale,Brindisi,Italy,ITA,40.66055556,17.94805556,"{""type"":""Point"",""coordinates"":[17.948055555555555,40.660555555555554]}"
LIEE,Elmas,Cagliari,Italy,ITA,39.24722222,9.056111111,"{""type"":""Point"",""coordinates"":[9.056111111111111,39.24722222222222]}"
LICC,Fontanarossa,Catania,Italy,ITA,37.46666667,15.06388889,"{""type"":""Point"",""coordinates"":[15.06388888888889,37.46666666666667]}"
LILY,Como,Como,Italy,ITA,45.81472222,9.069722222,"{""type"":""Point"",""coordinates"":[9.069722222222222,45.81472222222222]}"
LIMZ,Levaldigi,Cuneo,Italy,ITA,44.5475,7.623055556,"{""type"":""Point"",""coordinates"":[7.623055555555556,44.5475]}"
LIRQ,Peretola,Florence,Italy,ITA,43.80861111,11.20277778,"{""type"":""Point"",""coordinates"":[11.202777777777778,43.808611111111105]}"
LIPK,Forli,Forli,Italy,ITA,44.19555556,12.06972222,"{""type"":""Point"",""coordinates"":[12.069722222222222,44.19555555555555]}"
LIMJ,Sestri,Genoa,Italy,ITA,44.41333333,8.8375,"{""type"":""Point"",""coordinates"":[8.8375,44.413333333333334]}"
LICA,Lamezia Terme,Lamezia Terme,Italy,ITA,38.90833333,16.24166667,"{""type"":""Point"",""coordinates"":[16.241666666666667,38.90833333333333]}"
LIRJ,Marina Di Campo,Marina Di Campo,Italy,ITA,42.76111111,10.23972222,"{""type"":""Point"",""coordinates"":[10.239722222222222,42.76111111111111]}"
LIMC,Malpensa,Milan,Italy,ITA,45.63,8.723055556,"{""type"":""Point"",""coordinates"":[8.723055555555556,45.63]}"
LIML,Linate,Milan,Italy,ITA,45.44944444,9.278333333,"{""type"":""Point"",""coordinates"":[9.278333333333334,45.44944444444444]}"
LIRN,Capodichino,Naples,Italy,ITA,40.88444444,14.29083333,"{""type"":""Point"",""coordinates"":[14.290833333333333,40.88444444444444]}"
LIEO,Costa Smeralda,Olbia,Italy,ITA,40.89861111,9.517777778,"{""type"":""Point"",""coordinates"":[9.517777777777779,40.89861111111111]}"
LIPU,Padova,Padova,Italy,ITA,45.39611111,11.84805556,"{""type"":""Point"",""coordinates"":[11.848055555555556,45.39611111111111]}"
LICJ,Punta Raisi,Palermo,Italy,ITA,38.18194444,13.09944444,"{""type"":""Point"",""coordinates"":[13.099444444444446,38.18194444444444]}"
LICG,Pantelleria,Pantelleria,Italy,ITA,36.81305556,11.96083333,"{""type"":""Point"",""coordinates"":[11.960833333333333,36.81305555555555]}"
LIMP,Parma,Parma,Italy,ITA,44.82222222,10.29527778,"{""type"":""Point"",""coordinates"":[10.295277777777777,44.82222222222222]}"
LIRZ,San Francesco,Perugia,Italy,ITA,43.09722222,12.51027778,"{""type"":""Point"",""coordinates"":[12.510277777777778,43.09722222222222]}"
LIBP,Pescara,Pescara,Italy,ITA,42.43722222,14.18722222,"{""type"":""Point"",""coordinates"":[14.187222222222223,42.43722222222222]}"
LIRP,San Giusto,Pisa,Italy,ITA,43.68277778,10.39555556,"{""type"":""Point"",""coordinates"":[10.395555555555555,43.68277777777777]}"
LICR,Reggio Calabria,Reggio Calabria,Italy,ITA,38.07194444,15.65361111,"{""type"":""Point"",""coordinates"":[15.653611111111111,38.07194444444445]}"
LIPR,Rimini,Rimini,Italy,ITA,44.01944444,12.60944444,"{""type"":""Point"",""coordinates"":[12.609444444444444,44.019444444444446]}"
LIRF,Fiumicino,Rome,Italy,ITA,41.80027778,12.23888889,"{""type"":""Point"",""coordinates"":[12.238888888888889,41.80027777777777]}"
LIRU,Urbe,Rome,Italy,ITA,41.95194444,12.50083333,"{""type"":""Point"",""coordinates"":[12.500833333333333,41.95194444444445]}"
LIRA,Ciampino,Rome,Italy,ITA,41.79944444,12.59722222,"{""type"":""Point"",""coordinates"":[12.597222222222223,41.79944444444444]}"
LIMF,Caselle,Torino,Italy,ITA,45.2025,7.649444444,"{""type"":""Point"",""coordinates"":[7.649444444444444,45.2025]}"
LICT,Birgi,Trapani,Italy,ITA,37.91205833,12.49343889,"{""type"":""Point"",""coordinates"":[12.493438888888887,37.912058333333334]}"
LIPH,S.Angelo,Treviso,Italy,ITA,45.65083333,12.19777778,"{""type"":""Point"",""coordinates"":[12.197777777777778,45.65083333333333]}"
LIPQ,Ronchi Dei Legionari,Trieste,Italy,ITA,45.8275,13.47222222,"{""type"":""Point"",""coordinates"":[13.472222222222223,45.8275]}"
LIPZ,Tessera,Venice,Italy,ITA,45.50527778,12.35194444,"{""type"":""Point"",""coordinates"":[12.351944444444444,45.50527777777778]}"
LIPV,Lido,Venice,Italy,ITA,45.42888889,12.38777778,"{""type"":""Point"",""coordinates"":[12.387777777777778,45.428888888888885]}"
LIPX,Villafranca,Verona,Italy,ITA,45.39638889,10.88777778,"{""type"":""Point"",""coordinates"":[10.887777777777778,45.396388888888886]}"
DIAP,Felix Houphouet Boigny Intl,Abidjan,Ivory Coast,CIV,5.254502778,-3.928655556,"{""type"":""Point"",""coordinates"":[-3.9286555555555553,5.254502777777778]}"
DIBK,Bouake,Bouake,Ivory Coast,CIV,7.752388889,-5.067694444,"{""type"":""Point"",""coordinates"":[-5.067694444444444,7.7523888888888886]}"
MKJP,Norman Manley Intl,Kingston,Jamaica,JAM,17.93555556,-76.7875,"{""type"":""Point"",""coordinates"":[-76.7875,17.935555555555556]}"
MKJS,Sangster Intl,Montego Bay,Jamaica,JAM,18.50361111,-77.91333333,"{""type"":""Point"",""coordinates"":[-77.91333333333334,18.503611111111113]}"
MKBS,Ian Fleming Intl,Ocho Rios,Jamaica,JAM,18.40416667,-76.96916667,"{""type"":""Point"",""coordinates"":[-76.96916666666667,18.404166666666665]}"
RJFF,Fukuoka,Fukuoka,Japan,JPN,33.58444444,130.4516667,"{""type"":""Point"",""coordinates"":[130.45166666666665,33.58444444444444]}"
RJCH,Hakodate,Hakodate,Japan,JPN,41.77,140.8219444,"{""type"":""Point"",""coordinates"":[140.82194444444445,41.769999999999996]}"
RJOA,Hiroshima,Hiroshima,Japan,JPN,34.43611111,132.9194444,"{""type"":""Point"",""coordinates"":[132.91944444444442,34.43611111111111]}"
RJFK,Kagoshima,Kagoshima,Japan,JPN,31.80333333,130.7194444,"{""type"":""Point"",""coordinates"":[130.71944444444443,31.803333333333335]}"
RJFT,Kumamoto,Kumamoto,Japan,JPN,32.83722222,130.8552778,"{""type"":""Point"",""coordinates"":[130.8552777777778,32.83722222222222]}"
RJFU,Nagasaki,Nagasaki,Japan,JPN,32.91694444,129.9136111,"{""type"":""Point"",""coordinates"":[129.91361111111112,32.91694444444444]}"
RJGG,Chubu Centrair Intl,Nagoya,Japan,JPN,34.85833333,136.8052778,"{""type"":""Point"",""coordinates"":[136.8052777777778,34.858333333333334]}"
ROAH,Naha,Naha,Japan,JPN,26.19583333,127.6458333,"{""type"":""Point"",""coordinates"":[127.64583333333334,26.195833333333333]}"
RJSN,Niigata,Niigata,Japan,JPN,37.95583333,139.1116667,"{""type"":""Point"",""coordinates"":[139.11166666666665,37.95583333333334]}"
RJFO,Oita,Oita,Japan,JPN,33.47944444,131.7372222,"{""type"":""Point"",""coordinates"":[131.73722222222221,33.47944444444445]}"
RJOB,Okayama,Okayama,Japan,JPN,34.75694444,133.8552778,"{""type"":""Point"",""coordinates"":[133.8552777777778,34.75694444444444]}"
RJBB,Kansai Intl,Osaka,Japan,JPN,34.43416667,135.2327778,"{""type"":""Point"",""coordinates"":[135.23277777777778,34.43416666666666]}"
RJOO,Osaka Intl,Osaka,Japan,JPN,34.78444444,135.4391667,"{""type"":""Point"",""coordinates"":[135.43916666666667,34.78444444444444]}"
RJCC,New Chitose,Sapporo,Japan,JPN,42.77527778,141.6925,"{""type"":""Point"",""coordinates"":[141.6925,42.775277777777774]}"
RJSS,Sendai,Sendai,Japan,JPN,38.13972222,140.9169444,"{""type"":""Point"",""coordinates"":[140.91694444444443,38.13972222222222]}"
RJOT,Takamatsu,Takamatsu,Japan,JPN,34.21416667,134.0155556,"{""type"":""Point"",""coordinates"":[134.01555555555555,34.21416666666667]}"
RJTT,Tokyo (Haneda) Intl,Tokyo,Japan,JPN,35.55333333,139.7811111,"{""type"":""Point"",""coordinates"":[139.78111111111113,35.55333333333333]}"
RJAA,Narita Intl,Tokyo,Japan,JPN,35.76527778,140.3855556,"{""type"":""Point"",""coordinates"":[140.38555555555556,35.765277777777776]}"
OJAM,Marka Intl,Amman,Jordan,JOR,31.97270278,35.99156944,"{""type"":""Point"",""coordinates"":[35.991569444444444,31.972702777777776]}"
OJAI,Queen Alia Intl,Amman,Jordan,JOR,31.72255556,35.99321389,"{""type"":""Point"",""coordinates"":[35.99321388888889,31.722555555555555]}"
OJAQ,King Hussein Intl,Aqaba,Jordan,JOR,29.61161667,35.01806389,"{""type"":""Point"",""coordinates"":[35.01806388888889,29.611616666666666]}"
UATE,Aktau,Aktau,Kazakhstan,KAZ,43.86,51.09083333,"{""type"":""Point"",""coordinates"":[51.090833333333336,43.86]}"
UATT,Aktobe,Aktobe,Kazakhstan,KAZ,50.24583333,57.20666667,"{""type"":""Point"",""coordinates"":[57.20666666666667,50.24583333333334]}"
UAAA,Almaty,Almaty,Kazakhstan,KAZ,43.35555556,77.04388889,"{""type"":""Point"",""coordinates"":[77.04388888888889,43.355555555555554]}"
UACC,Astana,Astana,Kazakhstan,KAZ,51.0225,71.46611111,"{""type"":""Point"",""coordinates"":[71.46611111111112,51.0225]}"
UATG,Atyrau,Atyrau,Kazakhstan,KAZ,47.12194444,51.82,"{""type"":""Point"",""coordinates"":[51.82,47.121944444444445]}"
UAKK,Karaganda,Karaganda,Kazakhstan,KAZ,49.67166667,73.33527778,"{""type"":""Point"",""coordinates"":[73.33527777777778,49.67166666666667]}"
UACK,Kokshetau,Kokshetau,Kazakhstan,KAZ,53.33,69.59666667,"{""type"":""Point"",""coordinates"":[69.59666666666666,53.330000000000005]}"
UAUU,Narimanovka,Kostanay,Kazakhstan,KAZ,53.20722222,63.54888889,"{""type"":""Point"",""coordinates"":[63.54888888888889,53.20722222222223]}"
UAOO,Kyzylorda,Kyzylorda,Kazakhstan,KAZ,44.70638889,65.59083333,"{""type"":""Point"",""coordinates"":[65.59083333333332,44.70638888888889]}"
UASP,Pavlodar,Pavlodar,Kazakhstan,KAZ,52.195,77.07388889,"{""type"":""Point"",""coordinates"":[77.07388888888889,52.19499999999999]}"
UASS,Semey,Semey,Kazakhstan,KAZ,50.35138889,80.23444444,"{""type"":""Point"",""coordinates"":[80.23444444444445,50.35138888888889]}"
UAII,Shymkent,Shymkent,Kazakhstan,KAZ,42.365,69.47555556,"{""type"":""Point"",""coordinates"":[69.47555555555556,42.365]}"
UADD,Aulie-Ata,Taraz,Kazakhstan,KAZ,42.85416667,71.30277778,"{""type"":""Point"",""coordinates"":[71.30277777777778,42.85416666666667]}"
UASK,Ust-Kamenogorsk,Ust-Kamenogorsk,Kazakhstan,KAZ,50.03611111,82.49416667,"{""type"":""Point"",""coordinates"":[82.49416666666667,50.03611111111111]}"
UAKD,Zhezkazgan,Zhezkazgan,Kazakhstan,KAZ,47.70916667,67.73833333,"{""type"":""Point"",""coordinates"":[67.73833333333333,47.70916666666667]}"
HKEL,Eldoret Intl,Eldoret,Kenya,KEN,0.404011111,35.23671389,"{""type"":""Point"",""coordinates"":[35.23671388888889,0.40401111111111115]}"
HKMO,Moi Intl,Mombasa,Kenya,KEN,-4.026277778,39.59906389,"{""type"":""Point"",""coordinates"":[39.59906388888889,-4.026277777777778]}"
HKJK,Jomo Kenyatta Intl,Nairobi,Kenya,KEN,-1.319238889,36.927775,"{""type"":""Point"",""coordinates"":[36.927775,-1.3192388888888888]}"
PLCH,Cassidy Intl,Christmas I,Kiribati,KIR,1.986211111,-157.3496417,"{""type"":""Point"",""coordinates"":[-157.34964166666668,1.9862111111111111]}"
NGTA,Bonriki Intl,Tarawa I,Kiribati,KIR,1.381158333,173.1462806,"{""type"":""Point"",""coordinates"":[173.14628055555553,1.3811583333333333]}"
RKPK,Gimhae Intl,Busan,Korea,KOR,35.18055556,128.9380556,"{""type"":""Point"",""coordinates"":[128.93805555555556,35.18055555555555]}"
RKTU,Cheongju Intl,Cheongju,Korea,KOR,36.71638889,127.4991667,"{""type"":""Point"",""coordinates"":[127.49916666666667,36.71638888888889]}"
RKTN,Daegu Intl,Daegu,Korea,KOR,35.89416667,128.6588889,"{""type"":""Point"",""coordinates"":[128.6588888888889,35.89416666666666]}"
RKPC,Jeju Intl,Jeju,Korea,KOR,33.51222222,126.4927778,"{""type"":""Point"",""coordinates"":[126.49277777777777,33.51222222222222]}"
RKJB,Muan Intl,Muan,Korea,KOR,34.99138889,126.3827778,"{""type"":""Point"",""coordinates"":[126.38277777777778,34.99138888888889]}"
RKSS,Gimpo Intl,Seoul,Korea,KOR,37.55694444,126.7975,"{""type"":""Point"",""coordinates"":[126.7975,37.55694444444444]}"
RKSI,Incheon Intl,Seoul/Incheon,Korea,KOR,37.4625,126.4391667,"{""type"":""Point"",""coordinates"":[126.43916666666667,37.462500000000006]}"
RKNY,Yangyang Intl,Yangyang,Korea,KOR,38.06138889,128.6691667,"{""type"":""Point"",""coordinates"":[128.66916666666665,38.061388888888885]}"
OKBK,Kuwait Intl,Kuwait,Kuwait,KWT,29.22676667,47.97995278,"{""type"":""Point"",""coordinates"":[47.97995277777778,29.226766666666666]}"
UCFM,Manas,Bishkek,Kyrgyzstan,KGZ,43.06127222,74.47750833,"{""type"":""Point"",""coordinates"":[74.47750833333333,43.06127222222222]}"
UCFO,Osh,Osh,Kyrgyzstan,KGZ,40.60899722,72.79321389,"{""type"":""Point"",""coordinates"":[72.79321388888889,40.60899722222222]}"
VLVT,Wattay Intl,Vientiane,Laos,LAO,17.98831944,102.5632583,"{""type"":""Point"",""coordinates"":[102.56325833333334,17.988319444444446]}"
EVLA,Liepaja,Liepaja,Latvia,LVA,56.5175,21.09694444,"{""type"":""Point"",""coordinates"":[21.096944444444443,56.5175]}"
EVRA,Riga,Riga,Latvia,LVA,56.92361111,23.97111111,"{""type"":""Point"",""coordinates"":[23.97111111111111,56.92361111111111]}"
EVVA,Ventspils,Ventspils,Latvia,LVA,57.35777778,21.54416667,"{""type"":""Point"",""coordinates"":[21.54416666666667,57.35777777777778]}"
OLBA,Rafic Hariri Intl,Beirut,Lebanon,LBN,33.81905,35.49002778,"{""type"":""Point"",""coordinates"":[35.490027777777776,33.819050000000004]}"
FXMM,Moshoeshoe I Intl,Maseru,Lesotho,LSO,-29.45444444,27.55527778,"{""type"":""Point"",""coordinates"":[27.55527777777778,-29.454444444444444]}"
GLRB,Roberts Intl,Monrovia,Liberia,LBR,6.240444444,-10.35987778,"{""type"":""Point"",""coordinates"":[-10.359877777777777,6.240444444444445]}"
HLLB,Benina Intl,Benghazi,Libyan Arab Jamahiriya,LBY,32.09680556,20.26956111,"{""type"":""Point"",""coordinates"":[20.26956111111111,32.096805555555555]}"
HLLS,Sebha,Sebha,Libyan Arab Jamahiriya,LBY,26.98703333,14.47258333,"{""type"":""Point"",""coordinates"":[14.472583333333333,26.987033333333333]}"
HLLT,Tripoli Intl,Tripoli,Libyan Arab Jamahiriya,LBY,32.66358889,13.15916111,"{""type"":""Point"",""coordinates"":[13.15916111111111,32.66358888888889]}"
EYKA,Kaunas Intl,Kaunas,Lithuania,LTU,54.96388889,24.08472222,"{""type"":""Point"",""coordinates"":[24.084722222222222,54.96388888888889]}"
EYPA,Palanga Intl,Palanga,Lithuania,LTU,55.97333333,21.09388889,"{""type"":""Point"",""coordinates"":[21.093888888888888,55.973333333333336]}"
EYSA,Siauliai,Siauliai,Lithuania,LTU,55.89388889,23.395,"{""type"":""Point"",""coordinates"":[23.395,55.89388888888889]}"
EYVI,Vilnius Intl,Vilnius,Lithuania,LTU,54.63694444,25.28777778,"{""type"":""Point"",""coordinates"":[25.28777777777778,54.636944444444445]}"
ELLX,Luxembourg,Luxembourg,Luxembourg,LUX,49.62333333,6.204444444,"{""type"":""Point"",""coordinates"":[6.204444444444444,49.623333333333335]}"
VMMC,Macao Intl,Macao,Macao,MAC,22.14944444,113.5913889,"{""type"":""Point"",""coordinates"":[113.59138888888889,22.149444444444445]}"
LWOH,St Paul the Apostle,Ohrid,"Macedonia, F Y R",MKD,41.17992222,20.74232778,"{""type"":""Point"",""coordinates"":[20.742327777777778,41.17992222222222]}"
LWSK,Alexander the Great,Skopje,"Macedonia, F Y R",MKD,41.96166667,21.62138889,"{""type"":""Point"",""coordinates"":[21.62138888888889,41.961666666666666]}"
FMMI,Ivato,Antananarivo,Madagascar,MDG,-18.79652778,47.47608333,"{""type"":""Point"",""coordinates"":[47.476083333333335,-18.79652777777778]}"
FMNA,Arrachart,Antsiranana,Madagascar,MDG,-12.35111111,49.29416667,"{""type"":""Point"",""coordinates"":[49.29416666666666,-12.351111111111111]}"
FMNN,Fascene,Nosy-Be,Madagascar,MDG,-13.31805556,48.30916667,"{""type"":""Point"",""coordinates"":[48.30916666666666,-13.318055555555555]}"
FMMS,Sainte-Marie,Sainte-Marie,Madagascar,MDG,-17.09027778,49.81555556,"{""type"":""Point"",""coordinates"":[49.815555555555555,-17.090277777777775]}"
FMMT,Toamasina,Toamasina,Madagascar,MDG,-18.11583333,49.39333333,"{""type"":""Point"",""coordinates"":[49.39333333333333,-18.115833333333335]}"
FMSD,Tolagnaro,Tolagnaro,Madagascar,MDG,-25.03805556,46.95611111,"{""type"":""Point"",""coordinates"":[46.95611111111111,-25.03805555555556]}"
FWCL,Chileka Intl,Blantyre,Malawi,MWI,-15.67972222,34.9675,"{""type"":""Point"",""coordinates"":[34.9675,-15.679722222222221]}"
